X,Y,OBJECTID,stop_id,stop_code,stop_name,stop_desc,platform_code,platform_name,stop_lat,stop_lon,zone_id,stop_address,stop_url,level_id,location_type,parent_station,wheelchair_boarding,municipality,on_street,at_street,vehicle_type,Sidewalk_Width__ft_,Accessibility_Score,Sidewalk_Condition,Sidewalk_Material,Current_Shelter,Routes,Municipality_1,Neighborhood,created_user,created_date,last_edited_user,last_edited_date
-70.7147220002517,41.7583330003619,662880,CM-0493-S,,Wareham Village,Wareham Village - CapeFLYER - Track 1 (All Trains),1,Track 1 (All Trains),41.758333,-70.714722,CF-zone-buzzards,,https://www.mbta.com/stops/place-CM-0493,,0,place-CM-0493,1,Wareham,,,2,,,,,,,,,DOT_ADMIN,2023/12/11 19:40:12+00,DOT_ADMIN,2023/12/11 19:40:12+00
-70.6162260004542,41.7448049999325,662882,CM-0547-S,,Buzzards Bay,Buzzards Bay - CapeFLYER - Track 1 (All Trains),1,Track 1 (All Trains),41.744805,-70.616226,CF-zone-buzzards,,https://www.mbta.com/stops/place-CM-0547,,0,place-CM-0547,1,Bourne,,,2,,,,,,,,,DOT_ADMIN,2023/12/11 19:40:12+00,DOT_ADMIN,2023/12/11 19:40:12+00
-70.58877199991,41.7464970000387,662884,CM-0564-S,,Bourne,Bourne - CapeFLYER - Track 1 (All Trains),1,Track 1 (All Trains),41.746497,-70.588772,CF-zone-buzzards,,https://www.mbta.com/stops/place-CM-0564,,0,place-CM-0564,1,Bourne,,,2,,,,,,,,,DOT_ADMIN,2023/12/11 19:40:12+00,DOT_ADMIN,2023/12/11 19:40:12+00
-70.2765830003669,41.6602250002594,662886,CM-0790-S,,Hyannis,Hyannis - CapeFLYER - Track 1 (All Trains),1,Track 1 (All Trains),41.660225,-70.276583,CF-zone-hyannis,,https://www.mbta.com/stops/place-CM-0790,,0,place-CM-0790,1,Barnstable,,,2,,,,,,,,,DOT_ADMIN,2023/12/11 19:40:12+00,DOT_ADMIN,2023/12/11 19:40:12+00
-71.1332459995648,42.2384050003719,662888,DB-0095,,Readville,Readville - Commuter Rail,,Commuter Rail,42.238405,-71.133246,CR-zone-2,,https://www.mbta.com/stops/place-DB-0095,,0,place-DB-0095,1,Boston,,,2,,,,,,,,,DOT_ADMIN,2023/12/11 19:40:12+00,DOT_ADMIN,2023/12/11 19:40:12+00
-71.1335689994975,42.2377690001416,662889,FB-0095-04,,Readville,Readville - Commuter Rail - Track 4,4,Track 4,42.237769,-71.133569,CR-zone-2,,https://www.mbta.com/stops/place-DB-0095,,0,place-DB-0095,1,Boston,,,2,,,,,,,,,DOT_ADMIN,2023/12/11 19:40:12+00,DOT_ADMIN,2023/12/11 19:40:12+00
-71.1342950000545,42.2377810001057,662890,FB-0095-05,,Readville,Readville - Commuter Rail - Track 5,5,Track 5,42.237781,-71.134295,CR-zone-2,,https://www.mbta.com/stops/place-DB-0095,,0,place-DB-0095,1,Boston,,,2,,,,,,,,,DOT_ADMIN,2023/12/11 19:40:12+00,DOT_ADMIN,2023/12/11 19:40:12+00
-71.1332810003955,42.2388309998387,662891,NEC-2192-02,,Readville,Readville - Commuter Rail - Track 2,2,Track 2,42.238831,-71.133281,CR-zone-2,,https://www.mbta.com/stops/place-DB-0095,,0,place-DB-0095,1,Boston,,,2,,,,,,,,,DOT_ADMIN,2023/12/11 19:40:12+00,DOT_ADMIN,2023/12/11 19:40:12+00
-71.1334330003021,42.2388640000083,662892,NEC-2192-03,,Readville,Readville - Commuter Rail - Track 3,3,Track 3,42.238864,-71.133433,CR-zone-2,,https://www.mbta.com/stops/place-DB-0095,,0,place-DB-0095,1,Boston,,,2,,,,,,,,,DOT_ADMIN,2023/12/11 19:40:12+00,DOT_ADMIN,2023/12/11 19:40:12+00
-71.1192700005479,42.2536379998239,662894,DB-2205,,Fairmount,Fairmount - Commuter Rail,,Commuter Rail,42.253638,-71.11927,CR-zone-1A,,https://www.mbta.com/stops/place-DB-2205,,0,place-DB-2205,1,Boston,,,2,,,,,,,,,DOT_ADMIN,2023/12/11 19:40:12+00,DOT_ADMIN,2023/12/11 19:40:12+00
-71.1192700005479,42.2536379998239,662895,DB-2205-01,,Fairmount,Fairmount - Commuter Rail - Track 1 (Outbound),1,Track 1 (Outbound),42.253638,-71.11927,CR-zone-1A,,https://www.mbta.com/stops/place-DB-2205,,0,place-DB-2205,1,Boston,,,2,,,,,,,,,DOT_ADMIN,2023/12/11 19:40:12+00,DOT_ADMIN,2023/12/11 19:40:12+00
-71.1192700005479,42.2536379998239,662896,DB-2205-02,,Fairmount,Fairmount - Commuter Rail - Track 2 (South Station),2,Track 2 (South Station),42.253638,-71.11927,CR-zone-1A,,https://www.mbta.com/stops/place-DB-2205,,0,place-DB-2205,1,Boston,,,2,,,,,,,,,DOT_ADMIN,2023/12/11 19:40:12+00,DOT_ADMIN,2023/12/11 19:40:12+00
-71.0957820003955,42.2714660000446,662898,DB-2222,,Blue Hill Avenue,Blue Hill Avenue - Commuter Rail,,Commuter Rail,42.271466,-71.095782,CR-zone-1A,,https://www.mbta.com/stops/place-DB-2222,,0,place-DB-2222,1,Boston,,,2,,,,,,,,,DOT_ADMIN,2023/12/11 19:40:12+00,DOT_ADMIN,2023/12/11 19:40:12+00
-71.0957820003955,42.2714660000446,662899,DB-2222-01,,Blue Hill Avenue,Blue Hill Avenue - Commuter Rail - Track 1 (Outbound),1,Track 1 (Outbound),42.271466,-71.095782,CR-zone-1A,,https://www.mbta.com/stops/place-DB-2222,,0,place-DB-2222,1,Boston,,,2,,,,,,,,,DOT_ADMIN,2023/12/11 19:40:12+00,DOT_ADMIN,2023/12/11 19:40:12+00
-71.0957820003955,42.2714660000446,662900,DB-2222-02,,Blue Hill Avenue,Blue Hill Avenue - Commuter Rail - Track 2 (South Station),2,Track 2 (South Station),42.271466,-71.095782,CR-zone-1A,,https://www.mbta.com/stops/place-DB-2222,,0,place-DB-2222,1,Boston,,,2,,,,,,,,,DOT_ADMIN,2023/12/11 19:40:12+00,DOT_ADMIN,2023/12/11 19:40:12+00
-71.0854749994928,42.2809940004289,662902,DB-2230,,Morton Street,Morton Street - Commuter Rail,,Commuter Rail,42.280994,-71.085475,CR-zone-1A,,https://www.mbta.com/stops/place-DB-2230,,0,place-DB-2230,1,Boston,,,2,,,,,,,,,DOT_ADMIN,2023/12/11 19:40:12+00,DOT_ADMIN,2023/12/11 19:40:12+00
-71.0854749994928,42.2809940004289,662903,DB-2230-01,,Morton Street,Morton Street - Commuter Rail - Track 1 (Outbound),1,Track 1 (Outbound),42.280994,-71.085475,CR-zone-1A,,https://www.mbta.com/stops/place-DB-2230,,0,place-DB-2230,1,Boston,,,2,,,,,,,,,DOT_ADMIN,2023/12/11 19:40:12+00,DOT_ADMIN,2023/12/11 19:40:12+00
-71.0854749994928,42.2809940004289,662904,DB-2230-02,,Morton Street,Morton Street - Commuter Rail - Track 2 (South Station),2,Track 2 (South Station),42.280994,-71.085475,CR-zone-1A,,https://www.mbta.com/stops/place-DB-2230,,0,place-DB-2230,1,Boston,,,2,,,,,,,,,DOT_ADMIN,2023/12/11 19:40:12+00,DOT_ADMIN,2023/12/11 19:40:12+00
-71.0781400001291,42.2922460000535,662906,DB-2240,,Talbot Avenue,Talbot Avenue - Commuter Rail,,Commuter Rail,42.292246,-71.07814,CR-zone-1A,,https://www.mbta.com/stops/place-DB-2240,,0,place-DB-2240,1,Boston,,,2,,,,,,,,,DOT_ADMIN,2023/12/11 19:40:12+00,DOT_ADMIN,2023/12/11 19:40:12+00
-71.0781400001291,42.2922460000535,662907,DB-2240-01,,Talbot Avenue,Talbot Avenue - Commuter Rail - Track 1 (Outbound),1,Track 1 (Outbound),42.292246,-71.07814,CR-zone-1A,,https://www.mbta.com/stops/place-DB-2240,,0,place-DB-2240,1,Boston,,,2,,,,,,,,,DOT_ADMIN,2023/12/11 19:40:12+00,DOT_ADMIN,2023/12/11 19:40:12+00
-71.0781400001291,42.2922460000535,662908,DB-2240-02,,Talbot Avenue,Talbot Avenue - Commuter Rail - Track 2 (South Station),2,Track 2 (South Station),42.292246,-71.07814,CR-zone-1A,,https://www.mbta.com/stops/place-DB-2240,,0,place-DB-2240,1,Boston,,,2,,,,,,,,,DOT_ADMIN,2023/12/11 19:40:12+00,DOT_ADMIN,2023/12/11 19:40:12+00
-71.0768329998269,42.3050369996282,662910,DB-2249,,Four Corners/Geneva,Four Corners/Geneva - Commuter Rail,,Commuter Rail,42.305037,-71.076833,CR-zone-1A,,https://www.mbta.com/stops/place-DB-2249,,0,place-DB-2249,1,Boston,,,2,,,,,,,,,DOT_ADMIN,2023/12/11 19:40:12+00,DOT_ADMIN,2023/12/11 19:40:12+00
-71.0779790002242,42.3039550002673,662911,DB-2249-01,,Four Corners/Geneva,Four Corners/Geneva - Commuter Rail - Track 1 (Outbound),1,Track 1 (Outbound),42.303955,-71.077979,CR-zone-1A,,https://www.mbta.com/stops/place-DB-2249,,0,place-DB-2249,1,Boston,,,2,,,,,,,,,DOT_ADMIN,2023/12/11 19:40:12+00,DOT_ADMIN,2023/12/11 19:40:12+00
-71.0760960002757,42.3056920001023,662912,DB-2249-02,,Four Corners/Geneva,Four Corners/Geneva - Commuter Rail - Track 2 (South Station),2,Track 2 (South Station),42.305692,-71.076096,CR-zone-1A,,https://www.mbta.com/stops/place-DB-2249,,0,place-DB-2249,1,Boston,,,2,,,,,,,,,DOT_ADMIN,2023/12/11 19:40:12+00,DOT_ADMIN,2023/12/11 19:40:12+00
-71.0686270005174,42.3191249995589,662914,DB-2258,,Uphams Corner,Uphams Corner - Commuter Rail,,Commuter Rail,42.319125,-71.068627,CR-zone-1A,,https://www.mbta.com/stops/place-DB-2258,,0,place-DB-2258,1,Boston,,,2,,,,,,,,,DOT_ADMIN,2023/12/11 19:40:12+00,DOT_ADMIN,2023/12/11 19:40:12+00
-71.0686270005174,42.3191249995589,662915,DB-2258-01,,Uphams Corner,Uphams Corner - Commuter Rail - Track 1 (Outbound),1,Track 1 (Outbound),42.319125,-71.068627,CR-zone-1A,,https://www.mbta.com/stops/place-DB-2258,,0,place-DB-2258,1,Boston,,,2,,,,,,,,,DOT_ADMIN,2023/12/11 19:40:12+00,DOT_ADMIN,2023/12/11 19:40:12+00
-71.0686270005174,42.3191249995589,662916,DB-2258-02,,Uphams Corner,Uphams Corner - Commuter Rail - Track 2 (South Station),2,Track 2 (South Station),42.319125,-71.068627,CR-zone-1A,,https://www.mbta.com/stops/place-DB-2258,,0,place-DB-2258,1,Boston,,,2,,,,,,,,,DOT_ADMIN,2023/12/11 19:40:12+00,DOT_ADMIN,2023/12/11 19:40:12+00
-71.0656739996847,42.3274150002713,662918,DB-2265,,Newmarket,Newmarket - Commuter Rail,,Commuter Rail,42.327415,-71.065674,CR-zone-1A,,https://www.mbta.com/stops/place-DB-2265,,0,place-DB-2265,1,Boston,,,2,,,,,,,,,DOT_ADMIN,2023/12/11 19:40:12+00,DOT_ADMIN,2023/12/11 19:40:12+00
-71.0656739996847,42.3274150002713,662919,DB-2265-01,,Newmarket,Newmarket - Commuter Rail - Track 1 (Outbound),1,Track 1 (Outbound),42.327415,-71.065674,CR-zone-1A,,https://www.mbta.com/stops/place-DB-2265,,0,place-DB-2265,1,Boston,,,2,,,,,,,,,DOT_ADMIN,2023/12/11 19:40:12+00,DOT_ADMIN,2023/12/11 19:40:12+00
-71.0656739996847,42.3274150002713,662920,DB-2265-02,,Newmarket,Newmarket - Commuter Rail - Track 2 (South Station),2,Track 2 (South Station),42.327415,-71.065674,CR-zone-1A,,https://www.mbta.com/stops/place-DB-2265,,0,place-DB-2265,1,Boston,,,2,,,,,,,,,DOT_ADMIN,2023/12/11 19:40:12+00,DOT_ADMIN,2023/12/11 19:40:12+00
-70.96984799999,42.4499269998164,662922,ER-0099,,River Works,River Works (GE Employees only) - Commuter Rail,,Commuter Rail,42.449927,-70.969848,CR-zone-2,,https://www.mbta.com/stops/place-ER-0099,,0,place-ER-0099,2,Lynn,,,2,,,,,,,,,DOT_ADMIN,2023/12/11 19:40:12+00,DOT_ADMIN,2023/12/11 19:40:12+00
-70.96984799999,42.4499269998164,662923,ER-0099-01,,River Works,River Works (GE Employees only) - Commuter Rail - Track 1 (Outbound),1,Track 1 (Outbound),42.449927,-70.969848,CR-zone-2,,https://www.mbta.com/stops/place-ER-0099,,0,place-ER-0099,2,Lynn,,,2,,,,,,,,,DOT_ADMIN,2023/12/11 19:40:12+00,DOT_ADMIN,2023/12/11 19:40:12+00
-70.96984799999,42.4499269998164,662924,ER-0099-02,,River Works,River Works (GE Employees only) - Commuter Rail - Track 2 (Boston),2,Track 2 (Boston),42.449927,-70.969848,CR-zone-2,,https://www.mbta.com/stops/place-ER-0099,,0,place-ER-0099,2,Lynn,,,2,,,,,,,,,DOT_ADMIN,2023/12/11 19:40:12+00,DOT_ADMIN,2023/12/11 19:40:12+00
-70.9454210000925,42.4629529998436,662927,ER-0115,,Lynn,Lynn - Commuter Rail,,Commuter Rail,42.462953,-70.945421,CR-zone-2,,https://www.mbta.com/stops/place-ER-0115,,0,place-ER-0115,1,Lynn,,,2,,,,,,,,,DOT_ADMIN,2023/12/11 19:40:12+00,DOT_ADMIN,2023/12/11 19:40:12+00
-70.9454210000925,42.4629529998436,662928,ER-0115-01,,Lynn,Lynn - Commuter Rail - Track 1 (Outbound),1,Track 1 (Outbound),42.462953,-70.945421,CR-zone-2,,https://www.mbta.com/stops/place-ER-0115,,0,place-ER-0115,1,Lynn,,,2,,,,,,,,,DOT_ADMIN,2023/12/11 19:40:12+00,DOT_ADMIN,2023/12/11 19:40:12+00
-70.9454210000925,42.4629529998436,662929,ER-0115-02,,Lynn,Lynn - Commuter Rail - Track 2 (Boston),2,Track 2 (Boston),42.462953,-70.945421,CR-zone-2,,https://www.mbta.com/stops/place-ER-0115,,0,place-ER-0115,1,Lynn,,,2,,,,,,,,,DOT_ADMIN,2023/12/11 19:40:12+00,DOT_ADMIN,2023/12/11 19:40:12+00
-70.9225369998732,42.4737429995822,662931,ER-0128,,Swampscott,Swampscott - Commuter Rail,,Commuter Rail,42.473743,-70.922537,CR-zone-3,,https://www.mbta.com/stops/place-ER-0128,,0,place-ER-0128,1,Swampscott,,,2,,,,,,,,,DOT_ADMIN,2023/12/11 19:40:12+00,DOT_ADMIN,2023/12/11 19:40:12+00
-70.9225369998732,42.4737429995822,662932,ER-0128-01,,Swampscott,Swampscott - Commuter Rail - Track 1 (Outbound),1,Track 1 (Outbound),42.473743,-70.922537,CR-zone-3,,https://www.mbta.com/stops/place-ER-0128,,0,place-ER-0128,1,Swampscott,,,2,,,,,,,,,DOT_ADMIN,2023/12/11 19:40:12+00,DOT_ADMIN,2023/12/11 19:40:12+00
-70.9225369998732,42.4737429995822,662933,ER-0128-02,,Swampscott,Swampscott - Commuter Rail - Track 2 (Boston),2,Track 2 (Boston),42.473743,-70.922537,CR-zone-3,,https://www.mbta.com/stops/place-ER-0128,,0,place-ER-0128,1,Swampscott,,,2,,,,,,,,,DOT_ADMIN,2023/12/11 19:40:12+00,DOT_ADMIN,2023/12/11 19:40:12+00
-70.8958760002156,42.5247919999164,662938,ER-0168-S,,Salem,Salem - Commuter Rail - Track 1 (All Trains),1,Track 1 (All Trains),42.524792,-70.895876,CR-zone-3,,https://www.mbta.com/stops/place-ER-0168,,0,place-ER-0168,1,Salem,,,2,,,,,,,,,DOT_ADMIN,2023/12/11 19:40:12+00,DOT_ADMIN,2023/12/11 19:40:12+00
-70.8854320003101,42.547276000198,662940,ER-0183,,Beverly,Beverly - Commuter Rail,,Commuter Rail,42.547276,-70.885432,CR-zone-4,,https://www.mbta.com/stops/place-ER-0183,,0,place-ER-0183,1,Beverly,,,2,,,,,,,,,DOT_ADMIN,2023/12/11 19:40:12+00,DOT_ADMIN,2023/12/11 19:40:12+00
-70.8854320003101,42.547276000198,662941,ER-0183-01,,Beverly,Beverly - Commuter Rail - Track 1 (Outbound),1,Track 1 (Outbound),42.547276,-70.885432,CR-zone-4,,https://www.mbta.com/stops/place-ER-0183,,0,place-ER-0183,1,Beverly,,,2,,,,,,,,,DOT_ADMIN,2023/12/11 19:40:12+00,DOT_ADMIN,2023/12/11 19:40:12+00
-70.8854320003101,42.547276000198,662942,ER-0183-02,,Beverly,Beverly - Commuter Rail - Track 2 (Boston),2,Track 2 (Boston),42.547276,-70.885432,CR-zone-4,,https://www.mbta.com/stops/place-ER-0183,,0,place-ER-0183,1,Beverly,,,2,,,,,,,,,DOT_ADMIN,2023/12/11 19:40:12+00,DOT_ADMIN,2023/12/11 19:40:12+00
-70.8838509996449,42.5837790000367,662945,ER-0208,,North Beverly,North Beverly - Commuter Rail,,Commuter Rail,42.583779,-70.883851,CR-zone-5,,https://www.mbta.com/stops/place-ER-0208,,0,place-ER-0208,1,Beverly,,,2,,,,,,,,,DOT_ADMIN,2023/12/11 19:40:12+00,DOT_ADMIN,2023/12/11 19:40:12+00
-70.8838509996449,42.5837790000367,662946,ER-0208-01,,North Beverly,North Beverly - Commuter Rail - Track 1 (Outbound),1,Track 1 (Outbound),42.583779,-70.883851,CR-zone-5,,https://www.mbta.com/stops/place-ER-0208,,0,place-ER-0208,1,Beverly,,,2,,,,,,,,,DOT_ADMIN,2023/12/11 19:40:12+00,DOT_ADMIN,2023/12/11 19:40:12+00
-70.8838509996449,42.5837790000367,662947,ER-0208-02,,North Beverly,North Beverly - Commuter Rail - Track 2 (Boston),2,Track 2 (Boston),42.583779,-70.883851,CR-zone-5,,https://www.mbta.com/stops/place-ER-0208,,0,place-ER-0208,1,Beverly,,,2,,,,,,,,,DOT_ADMIN,2023/12/11 19:40:12+00,DOT_ADMIN,2023/12/11 19:40:12+00
-70.87480100018,42.6092120003185,662949,ER-0227-S,,Hamilton/Wenham,Hamilton/Wenham - Commuter Rail - Track 1 (All Trains),1,Track 1 (All Trains),42.609212,-70.874801,CR-zone-5,,https://www.mbta.com/stops/place-ER-0227,,0,place-ER-0227,1,Hamilton,,,2,,,,,,,,,DOT_ADMIN,2023/12/11 19:40:12+00,DOT_ADMIN,2023/12/11 19:40:12+00
-70.8405889997405,42.6769209996726,662951,ER-0276-S,,Ipswich,Ipswich - Commuter Rail - Track 1 (All Trains),1,Track 1 (All Trains),42.676921,-70.840589,CR-zone-6,,https://www.mbta.com/stops/place-ER-0276,,0,place-ER-0276,1,Ipswich,,,2,,,,,,,,,DOT_ADMIN,2023/12/11 19:40:12+00,DOT_ADMIN,2023/12/11 19:40:12+00
-70.8590340001597,42.7268449996787,662953,ER-0312-S,,Rowley,Rowley - Commuter Rail - Track 1 (All Trains),1,Track 1 (All Trains),42.726845,-70.859034,CR-zone-7,,https://www.mbta.com/stops/place-ER-0312,,0,place-ER-0312,1,Rowley,,,2,,,,,,,,,DOT_ADMIN,2023/12/11 19:40:12+00,DOT_ADMIN,2023/12/11 19:40:12+00
-70.8779699997876,42.7978370000451,662955,ER-0362,,Newburyport,Newburyport - Commuter Rail,,Commuter Rail,42.797837,-70.87797,CR-zone-8,,https://www.mbta.com/stops/place-ER-0362,,0,place-ER-0362,1,Newburyport,,,2,,,,,,,,,DOT_ADMIN,2023/12/11 19:40:12+00,DOT_ADMIN,2023/12/11 19:40:12+00
-70.8779699997876,42.7978370000451,662956,ER-0362-01,,Newburyport,Newburyport - Commuter Rail - Track 1,1,Track 1,42.797837,-70.87797,CR-zone-8,,https://www.mbta.com/stops/place-ER-0362,,0,place-ER-0362,1,Newburyport,,,2,,,,,,,,,DOT_ADMIN,2023/12/11 19:40:12+00,DOT_ADMIN,2023/12/11 19:40:12+00
-70.8779699997876,42.7978370000451,662957,ER-0362-02,,Newburyport,Newburyport - Commuter Rail - Track 2,2,Track 2,42.797837,-70.87797,CR-zone-8,,https://www.mbta.com/stops/place-ER-0362,,0,place-ER-0362,1,Newburyport,,,2,,,,,,,,,DOT_ADMIN,2023/12/11 19:40:12+00,DOT_ADMIN,2023/12/11 19:40:12+00
-71.1586470002631,42.2332490002293,662959,FB-0109,,Endicott,Endicott - Commuter Rail,,Commuter Rail,42.233249,-71.158647,CR-zone-2,,https://www.mbta.com/stops/place-FB-0109,,0,place-FB-0109,2,Dedham,,,2,,,,,,,,,DOT_ADMIN,2023/12/11 19:40:12+00,DOT_ADMIN,2023/12/11 19:40:12+00
-71.1586470002631,42.2332490002293,662960,FB-0109-01,,Endicott,Endicott - Commuter Rail - Track 1 (Outbound),1,Track 1 (Outbound),42.233249,-71.158647,CR-zone-2,,https://www.mbta.com/stops/place-FB-0109,,0,place-FB-0109,2,Dedham,,,2,,,,,,,,,DOT_ADMIN,2023/12/11 19:40:12+00,DOT_ADMIN,2023/12/11 19:40:12+00
-71.1586470002631,42.2332490002293,662961,FB-0109-02,,Endicott,Endicott - Commuter Rail - Track 2 (Boston),2,Track 2 (Boston),42.233249,-71.158647,CR-zone-2,,https://www.mbta.com/stops/place-FB-0109,,0,place-FB-0109,2,Dedham,,,2,,,,,,,,,DOT_ADMIN,2023/12/11 19:40:12+00,DOT_ADMIN,2023/12/11 19:40:12+00
-71.1742539994833,42.2270789996783,662963,FB-0118,,Dedham Corporate Center,Dedham Corporate Center - Commuter Rail,,Commuter Rail,42.227079,-71.174254,CR-zone-2,,https://www.mbta.com/stops/place-FB-0118,,0,place-FB-0118,1,Dedham,,,2,,,,,,,,,DOT_ADMIN,2023/12/11 19:40:12+00,DOT_ADMIN,2023/12/11 19:40:12+00
-71.1742539994833,42.2270789996783,662964,FB-0118-01,,Dedham Corporate Center,Dedham Corporate Center - Commuter Rail - Track 1 (Outbound),1,Track 1 (Outbound),42.227079,-71.174254,CR-zone-2,,https://www.mbta.com/stops/place-FB-0118,,0,place-FB-0118,1,Dedham,,,2,,,,,,,,,DOT_ADMIN,2023/12/11 19:40:12+00,DOT_ADMIN,2023/12/11 19:40:12+00
-71.1742539994833,42.2270789996783,662965,FB-0118-02,,Dedham Corporate Center,Dedham Corporate Center - Commuter Rail - Track 2 (Boston),2,Track 2 (Boston),42.227079,-71.174254,CR-zone-2,,https://www.mbta.com/stops/place-FB-0118,,0,place-FB-0118,1,Dedham,,,2,,,,,,,,,DOT_ADMIN,2023/12/11 19:40:12+00,DOT_ADMIN,2023/12/11 19:40:12+00
-71.1839610001684,42.221050000061,662967,FB-0125,,Islington,Islington - Commuter Rail,,Commuter Rail,42.22105,-71.183961,CR-zone-3,,https://www.mbta.com/stops/place-FB-0125,,0,place-FB-0125,2,Westwood,,,2,,,,,,,,,DOT_ADMIN,2023/12/11 19:40:12+00,DOT_ADMIN,2023/12/11 19:40:12+00
-71.1839610001684,42.221050000061,662968,FB-0125-01,,Islington,Islington - Commuter Rail - Track 1 (Outbound),1,Track 1 (Outbound),42.22105,-71.183961,CR-zone-3,,https://www.mbta.com/stops/place-FB-0125,,0,place-FB-0125,2,Westwood,,,2,,,,,,,,,DOT_ADMIN,2023/12/11 19:40:12+00,DOT_ADMIN,2023/12/11 19:40:12+00
-71.1839610001684,42.221050000061,662969,FB-0125-02,,Islington,Islington - Commuter Rail - Track 2 (Boston),2,Track 2 (Boston),42.22105,-71.183961,CR-zone-3,,https://www.mbta.com/stops/place-FB-0125,,0,place-FB-0125,2,Westwood,,,2,,,,,,,,,DOT_ADMIN,2023/12/11 19:40:12+00,DOT_ADMIN,2023/12/11 19:40:12+00
-71.1966880005376,42.1968570002737,662971,FB-0143,,Norwood Depot,Norwood Depot - Commuter Rail,,Commuter Rail,42.196857,-71.196688,CR-zone-3,,https://www.mbta.com/stops/place-FB-0143,,0,place-FB-0143,1,Norwood,,,2,,,,,,,,,DOT_ADMIN,2023/12/11 19:40:12+00,DOT_ADMIN,2023/12/11 19:40:12+00
-71.1966880005376,42.1968570002737,662972,FB-0143-01,,Norwood Depot,Norwood Depot - Commuter Rail - Track 1 (Outbound),1,Track 1 (Outbound),42.196857,-71.196688,CR-zone-3,,https://www.mbta.com/stops/place-FB-0143,,0,place-FB-0143,1,Norwood,,,2,,,,,,,,,DOT_ADMIN,2023/12/11 19:40:12+00,DOT_ADMIN,2023/12/11 19:40:12+00
-71.1966880005376,42.1968570002737,662973,FB-0143-02,,Norwood Depot,Norwood Depot - Commuter Rail - Track 2 (Boston),2,Track 2 (Boston),42.196857,-71.196688,CR-zone-3,,https://www.mbta.com/stops/place-FB-0143,,0,place-FB-0143,1,Norwood,,,2,,,,,,,,,DOT_ADMIN,2023/12/11 19:40:12+00,DOT_ADMIN,2023/12/11 19:40:12+00
-71.1996650001171,42.1887749996391,662975,FB-0148,,Norwood Central,Norwood Central - Commuter Rail,,Commuter Rail,42.188775,-71.199665,CR-zone-3,,https://www.mbta.com/stops/place-FB-0148,,0,place-FB-0148,1,Norwood,,,2,,,,,,,,,DOT_ADMIN,2023/12/11 19:40:12+00,DOT_ADMIN,2023/12/11 19:40:12+00
-71.1996650001171,42.1887749996391,662976,FB-0148-01,,Norwood Central,Norwood Central - Commuter Rail - Track 1 (Outbound),1,Track 1 (Outbound),42.188775,-71.199665,CR-zone-3,,https://www.mbta.com/stops/place-FB-0148,,0,place-FB-0148,1,Norwood,,,2,,,,,,,,,DOT_ADMIN,2023/12/11 19:40:12+00,DOT_ADMIN,2023/12/11 19:40:12+00
-71.1996650001171,42.1887749996391,662977,FB-0148-02,,Norwood Central,Norwood Central - Commuter Rail - Track 2 (Boston),2,Track 2 (Boston),42.188775,-71.199665,CR-zone-3,,https://www.mbta.com/stops/place-FB-0148,,0,place-FB-0148,1,Norwood,,,2,,,,,,,,,DOT_ADMIN,2023/12/11 19:40:12+00,DOT_ADMIN,2023/12/11 19:40:12+00
-71.2193660004366,42.1721269999182,662979,FB-0166-S,,Windsor Gardens,Windsor Gardens - Commuter Rail - Track 1 (All Trains),1,Track 1 (All Trains),42.172127,-71.219366,CR-zone-4,,https://www.mbta.com/stops/place-FB-0166,,0,place-FB-0166,2,Norwood,,,2,,,,,,,,,DOT_ADMIN,2023/12/11 19:40:12+00,DOT_ADMIN,2023/12/11 19:40:12+00
-71.2361250004047,42.1591230001417,662981,FB-0177-S,,Plimptonville,Plimptonville - Commuter Rail - Track 1 (All Trains),1,Track 1 (All Trains),42.159123,-71.236125,CR-zone-4,,https://www.mbta.com/stops/place-FB-0177,,0,place-FB-0177,2,Walpole,,,2,,,,,,,,,DOT_ADMIN,2023/12/11 19:40:12+00,DOT_ADMIN,2023/12/11 19:40:12+00
-71.2577900000545,42.1454769997686,662983,FB-0191-S,,Walpole,Walpole - Commuter Rail - Track 1 (All Trains),1,Track 1 (All Trains),42.145477,-71.25779,CR-zone-4,,https://www.mbta.com/stops/place-FB-0191,,0,place-FB-0191,2,Walpole,,,2,,,,,,,,,DOT_ADMIN,2023/12/11 19:40:12+00,DOT_ADMIN,2023/12/11 19:40:12+00
-71.3252169997978,42.1206939999085,662985,FB-0230-S,,Norfolk,Norfolk - Commuter Rail - Track 1 (All Trains),1,Track 1 (All Trains),42.120694,-71.325217,CR-zone-5,,https://www.mbta.com/stops/place-FB-0230,,0,place-FB-0230,1,Norfolk,,,2,,,,,,,,,DOT_ADMIN,2023/12/11 19:40:12+00,DOT_ADMIN,2023/12/11 19:40:12+00
-71.3961020005876,42.0832380001714,662987,FB-0275-S,,Franklin,Franklin - Commuter Rail - Track 1 (All Trains),1,Track 1 (All Trains),42.083238,-71.396102,CR-zone-6,,https://www.mbta.com/stops/place-FB-0275,,0,place-FB-0275,2,Franklin,,,2,,,,,,,,,DOT_ADMIN,2023/12/11 19:40:12+00,DOT_ADMIN,2023/12/11 19:40:12+00
-71.4390199996157,42.0899410004378,662989,FB-0303-S,,Forge Park/495,Forge Park/495 - Commuter Rail - Track 1 (All Trains),1,Track 1 (All Trains),42.089941,-71.43902,CR-zone-6,,https://www.mbta.com/stops/place-FB-0303,,0,place-FB-0303,1,Franklin,,,2,,,,,,,,,DOT_ADMIN,2023/12/11 19:40:12+00,DOT_ADMIN,2023/12/11 19:40:12+00
-71.176189999923,42.3958959999362,662991,FR-0064,,Belmont,Belmont - Commuter Rail,,Commuter Rail,42.395896,-71.17619,CR-zone-1,,https://www.mbta.com/stops/place-FR-0064,,0,place-FR-0064,2,Belmont,,,2,,,,,,,,,DOT_ADMIN,2023/12/11 19:40:12+00,DOT_ADMIN,2023/12/11 19:40:12+00
-71.176189999923,42.3958959999362,662992,FR-0064-01,,Belmont,Belmont - Commuter Rail - Track 1 (Outbound),1,Track 1 (Outbound),42.395896,-71.17619,CR-zone-1,,https://www.mbta.com/stops/place-FR-0064,,0,place-FR-0064,2,Belmont,,,2,,,,,,,,,DOT_ADMIN,2023/12/11 19:40:12+00,DOT_ADMIN,2023/12/11 19:40:12+00
-71.176189999923,42.3958959999362,662993,FR-0064-02,,Belmont,Belmont - Commuter Rail - Track 2 (Boston),2,Track 2 (Boston),42.395896,-71.17619,CR-zone-1,,https://www.mbta.com/stops/place-FR-0064,,0,place-FR-0064,2,Belmont,,,2,,,,,,,,,DOT_ADMIN,2023/12/11 19:40:12+00,DOT_ADMIN,2023/12/11 19:40:12+00
-71.1907439996551,42.3876000004006,662995,FR-0074,,Waverley,Waverley - Commuter Rail,,Commuter Rail,42.3876,-71.190744,CR-zone-1,,https://www.mbta.com/stops/place-FR-0074,,0,place-FR-0074,2,Belmont,,,2,,,,,,,,,DOT_ADMIN,2023/12/11 19:40:12+00,DOT_ADMIN,2023/12/11 19:40:12+00
-71.1907439996551,42.3876000004006,662996,FR-0074-01,,Waverley,Waverley - Commuter Rail - Track 1 (Outbound),1,Track 1 (Outbound),42.3876,-71.190744,CR-zone-1,,https://www.mbta.com/stops/place-FR-0074,,0,place-FR-0074,2,Belmont,,,2,,,,,,,,,DOT_ADMIN,2023/12/11 19:40:12+00,DOT_ADMIN,2023/12/11 19:40:12+00
-71.1907439996551,42.3876000004006,662997,FR-0074-02,,Waverley,Waverley - Commuter Rail - Track 2 (Boston),2,Track 2 (Boston),42.3876,-71.190744,CR-zone-1,,https://www.mbta.com/stops/place-FR-0074,,0,place-FR-0074,2,Belmont,,,2,,,,,,,,,DOT_ADMIN,2023/12/11 19:40:12+00,DOT_ADMIN,2023/12/11 19:40:12+00
-71.2356149999526,42.3742960001122,662999,FR-0098,,Waltham,Waltham - Commuter Rail,,Commuter Rail,42.374296,-71.235615,CR-zone-2,,https://www.mbta.com/stops/place-FR-0098,,0,place-FR-0098,1,Waltham,,,2,,,,,,,,,DOT_ADMIN,2023/12/11 19:40:12+00,DOT_ADMIN,2023/12/11 19:40:12+00
-71.2386720002117,42.3736979999744,663000,FR-0098-01,,Waltham,Waltham - Commuter Rail - Track 1 (Outbound),1,Track 1 (Outbound),42.373698,-71.238672,CR-zone-2,,https://www.mbta.com/stops/place-FR-0098,,0,place-FR-0098,1,Waltham,,,2,,,,,,,,,DOT_ADMIN,2023/12/11 19:40:12+00,DOT_ADMIN,2023/12/11 19:40:12+00
-71.2356149999526,42.3742960001122,663001,FR-0098-S,,Waltham,Waltham - Commuter Rail - Track 2 (Boston),2,Track 2 (Boston),42.374296,-71.235615,CR-zone-2,,https://www.mbta.com/stops/place-FR-0098,,0,place-FR-0098,1,Waltham,,,2,,,,,,,,,DOT_ADMIN,2023/12/11 19:40:12+00,DOT_ADMIN,2023/12/11 19:40:12+00
-71.2600650000103,42.3618979997785,663003,FR-0115,,Brandeis/Roberts,Brandeis/Roberts - Commuter Rail,,Commuter Rail,42.361898,-71.260065,CR-zone-2,,https://www.mbta.com/stops/place-FR-0115,,0,place-FR-0115,1,Waltham,,,2,,,,,,,,,DOT_ADMIN,2023/12/11 19:40:12+00,DOT_ADMIN,2023/12/11 19:40:12+00
-71.2600650000103,42.3618979997785,663004,FR-0115-01,,Brandeis/Roberts,Brandeis/Roberts - Commuter Rail - Track 1 (Outbound),1,Track 1 (Outbound),42.361898,-71.260065,CR-zone-2,,https://www.mbta.com/stops/place-FR-0115,,0,place-FR-0115,1,Waltham,,,2,,,,,,,,,DOT_ADMIN,2023/12/11 19:40:12+00,DOT_ADMIN,2023/12/11 19:40:12+00
-71.2600650000103,42.3618979997785,663005,FR-0115-02,,Brandeis/Roberts,Brandeis/Roberts - Commuter Rail - Track 2 (Boston),2,Track 2 (Boston),42.361898,-71.260065,CR-zone-2,,https://www.mbta.com/stops/place-FR-0115,,0,place-FR-0115,1,Waltham,,,2,,,,,,,,,DOT_ADMIN,2023/12/11 19:40:12+00,DOT_ADMIN,2023/12/11 19:40:12+00
-71.2824110003166,42.3789700003946,663007,FR-0132,,Kendal Green,Kendal Green - Commuter Rail,,Commuter Rail,42.37897,-71.282411,CR-zone-3,,https://www.mbta.com/stops/place-FR-0132,,0,place-FR-0132,2,Weston,,,2,,,,,,,,,DOT_ADMIN,2023/12/11 19:40:12+00,DOT_ADMIN,2023/12/11 19:40:12+00
-71.2824110003166,42.3789700003946,663008,FR-0132-01,,Kendal Green,Kendal Green - Commuter Rail - Track 1,1,Track 1,42.37897,-71.282411,CR-zone-3,,https://www.mbta.com/stops/place-FR-0132,,0,place-FR-0132,2,Weston,,,2,,,,,,,,,DOT_ADMIN,2023/12/11 19:40:12+00,DOT_ADMIN,2023/12/11 19:40:12+00
-71.2824110003166,42.3789700003946,663009,FR-0132-02,,Kendal Green,Kendal Green - Commuter Rail - Track 2,2,Track 2,42.37897,-71.282411,CR-zone-3,,https://www.mbta.com/stops/place-FR-0132,,0,place-FR-0132,2,Weston,,,2,,,,,,,,,DOT_ADMIN,2023/12/11 19:40:12+00,DOT_ADMIN,2023/12/11 19:40:12+00
-71.2892030005418,42.3857549999667,663011,FR-0137,,Hastings,Hastings - Commuter Rail,,Commuter Rail,42.385755,-71.289203,CR-zone-3,,https://www.mbta.com/stops/place-FR-0137,,0,place-FR-0137,2,Weston,,,2,,,,,,,,,DOT_ADMIN,2023/12/11 19:40:12+00,DOT_ADMIN,2023/12/11 19:40:12+00
-71.2892030005418,42.3857549999667,663012,FR-0137-01,,Hastings,Hastings - Commuter Rail - Track 1,1,Track 1,42.385755,-71.289203,CR-zone-3,,https://www.mbta.com/stops/place-FR-0137,,0,place-FR-0137,2,Weston,,,2,,,,,,,,,DOT_ADMIN,2023/12/11 19:40:12+00,DOT_ADMIN,2023/12/11 19:40:12+00
-71.2892030005418,42.3857549999667,663013,FR-0137-02,,Hastings,Hastings - Commuter Rail - Track 2,2,Track 2,42.385755,-71.289203,CR-zone-3,,https://www.mbta.com/stops/place-FR-0137,,0,place-FR-0137,2,Weston,,,2,,,,,,,,,DOT_ADMIN,2023/12/11 19:40:12+00,DOT_ADMIN,2023/12/11 19:40:12+00
-71.3023570000158,42.3956250001414,663015,FR-0147,,Silver Hill,Silver Hill - Commuter Rail,,Commuter Rail,42.395625,-71.302357,CR-zone-3,,https://www.mbta.com/stops/place-FR-0147,,0,place-FR-0147,2,Weston,,,2,,,,,,,,,DOT_ADMIN,2023/12/11 19:40:12+00,DOT_ADMIN,2023/12/11 19:40:12+00
-71.3023570000158,42.3956250001414,663016,FR-0147-01,,Silver Hill,Silver Hill - Commuter Rail - Track 1,1,Track 1,42.395625,-71.302357,CR-zone-3,,https://www.mbta.com/stops/place-FR-0147,,0,place-FR-0147,2,Weston,,,2,,,,,,,,,DOT_ADMIN,2023/12/11 19:40:12+00,DOT_ADMIN,2023/12/11 19:40:12+00
-71.3023570000158,42.3956250001414,663017,FR-0147-02,,Silver Hill,Silver Hill - Commuter Rail - Track 2,2,Track 2,42.395625,-71.302357,CR-zone-3,,https://www.mbta.com/stops/place-FR-0147,,0,place-FR-0147,2,Weston,,,2,,,,,,,,,DOT_ADMIN,2023/12/11 19:40:12+00,DOT_ADMIN,2023/12/11 19:40:12+00
-71.3254039996242,42.4134199997341,663019,FR-0167,,Lincoln,Lincoln - Commuter Rail,,Commuter Rail,42.41342,-71.325404,CR-zone-4,,https://www.mbta.com/stops/place-FR-0167,,0,place-FR-0167,2,Lincoln,,,2,,,,,,,,,DOT_ADMIN,2023/12/11 19:40:12+00,DOT_ADMIN,2023/12/11 19:40:12+00
-71.3264619999946,42.4149830000352,663020,FR-0167-01,,Lincoln,Lincoln - Commuter Rail - Track 1 (Outbound),1,Track 1 (Outbound),42.414983,-71.326462,CR-zone-4,,https://www.mbta.com/stops/place-FR-0167,,0,place-FR-0167,2,Lincoln,,,2,,,,,,,,,DOT_ADMIN,2023/12/11 19:40:12+00,DOT_ADMIN,2023/12/11 19:40:12+00
-71.3255119999476,42.4136410004177,663021,FR-0167-02,,Lincoln,Lincoln - Commuter Rail - Track 2 (Boston),2,Track 2 (Boston),42.413641,-71.325512,CR-zone-4,,https://www.mbta.com/stops/place-FR-0167,,0,place-FR-0167,2,Lincoln,,,2,,,,,,,,,DOT_ADMIN,2023/12/11 19:40:12+00,DOT_ADMIN,2023/12/11 19:40:12+00
-71.3576769997421,42.4565650002578,663023,FR-0201,,Concord,Concord - Commuter Rail,,Commuter Rail,42.456565,-71.357677,CR-zone-5,,https://www.mbta.com/stops/place-FR-0201,,0,place-FR-0201,2,Concord,,,2,,,,,,,,,DOT_ADMIN,2023/12/11 19:40:12+00,DOT_ADMIN,2023/12/11 19:40:12+00
-71.3576769997421,42.4565650002578,663024,FR-0201-01,,Concord,Concord - Commuter Rail - Track 1 (Outbound),1,Track 1 (Outbound),42.456565,-71.357677,CR-zone-5,,https://www.mbta.com/stops/place-FR-0201,,0,place-FR-0201,2,Concord,,,2,,,,,,,,,DOT_ADMIN,2023/12/11 19:40:12+00,DOT_ADMIN,2023/12/11 19:40:12+00
-71.3576769997421,42.4565650002578,663025,FR-0201-02,,Concord,Concord - Commuter Rail - Track 2 (Boston),2,Track 2 (Boston),42.456565,-71.357677,CR-zone-5,,https://www.mbta.com/stops/place-FR-0201,,0,place-FR-0201,2,Concord,,,2,,,,,,,,,DOT_ADMIN,2023/12/11 19:40:12+00,DOT_ADMIN,2023/12/11 19:40:12+00
-71.392892000344,42.4570429997095,663027,FR-0219,,West Concord,West Concord - Commuter Rail,,Commuter Rail,42.457043,-71.392892,CR-zone-5,,https://www.mbta.com/stops/place-FR-0219,,0,place-FR-0219,1,Concord,,,2,,,,,,,,,DOT_ADMIN,2023/12/11 19:40:12+00,DOT_ADMIN,2023/12/11 19:40:12+00
-71.392892000344,42.4570429997095,663028,FR-0219-01,,West Concord,West Concord - Commuter Rail - Track 1 (Outbound),1,Track 1 (Outbound),42.457043,-71.392892,CR-zone-5,,https://www.mbta.com/stops/place-FR-0219,,0,place-FR-0219,1,Concord,,,2,,,,,,,,,DOT_ADMIN,2023/12/11 19:40:12+00,DOT_ADMIN,2023/12/11 19:40:12+00
-71.392892000344,42.4570429997095,663029,FR-0219-02,,West Concord,West Concord - Commuter Rail - Track 2 (Boston),2,Track 2 (Boston),42.457043,-71.392892,CR-zone-5,,https://www.mbta.com/stops/place-FR-0219,,0,place-FR-0219,1,Concord,,,2,,,,,,,,,DOT_ADMIN,2023/12/11 19:40:12+00,DOT_ADMIN,2023/12/11 19:40:12+00
-71.4577440005655,42.4603749998155,663031,FR-0253,,South Acton,South Acton - Commuter Rail,,Commuter Rail,42.460375,-71.457744,CR-zone-6,,https://www.mbta.com/stops/place-FR-0253,,0,place-FR-0253,1,Acton,,,2,,,,,,,,,DOT_ADMIN,2023/12/11 19:40:12+00,DOT_ADMIN,2023/12/11 19:40:12+00
-71.4577440005655,42.4603749998155,663032,FR-0253-01,,South Acton,South Acton - Commuter Rail - Track 1 (Outbound),1,Track 1 (Outbound),42.460375,-71.457744,CR-zone-6,,https://www.mbta.com/stops/place-FR-0253,,0,place-FR-0253,1,Acton,,,2,,,,,,,,,DOT_ADMIN,2023/12/11 19:40:12+00,DOT_ADMIN,2023/12/11 19:40:12+00
-71.4577440005655,42.4603749998155,663033,FR-0253-02,,South Acton,South Acton - Commuter Rail - Track 2 (Boston),2,Track 2 (Boston),42.460375,-71.457744,CR-zone-6,,https://www.mbta.com/stops/place-FR-0253,,0,place-FR-0253,1,Acton,,,2,,,,,,,,,DOT_ADMIN,2023/12/11 19:40:12+00,DOT_ADMIN,2023/12/11 19:40:12+00
-71.5026430002383,42.5192360002813,663035,FR-0301,,Littleton/Route 495,Littleton/Route 495 - Commuter Rail,,Commuter Rail,42.519236,-71.502643,CR-zone-7,,https://www.mbta.com/stops/place-FR-0301,,0,place-FR-0301,1,Littleton,,,2,,,,,,,,,DOT_ADMIN,2023/12/11 19:40:12+00,DOT_ADMIN,2023/12/11 19:40:12+00
-71.5026430002383,42.5192360002813,663036,FR-0301-01,,Littleton/Route 495,Littleton/Route 495 - Commuter Rail - Track 1 (Outbound),1,Track 1 (Outbound),42.519236,-71.502643,CR-zone-7,,https://www.mbta.com/stops/place-FR-0301,,0,place-FR-0301,1,Littleton,,,2,,,,,,,,,DOT_ADMIN,2023/12/11 19:40:12+00,DOT_ADMIN,2023/12/11 19:40:12+00
-71.5026430002383,42.5192360002813,663037,FR-0301-02,,Littleton/Route 495,Littleton/Route 495 - Commuter Rail - Track 2 (Boston),2,Track 2 (Boston),42.519236,-71.502643,CR-zone-7,,https://www.mbta.com/stops/place-FR-0301,,0,place-FR-0301,1,Littleton,,,2,,,,,,,,,DOT_ADMIN,2023/12/11 19:40:12+00,DOT_ADMIN,2023/12/11 19:40:12+00
-71.5884760000937,42.5590740003412,663039,FR-0361,,Ayer,Ayer - Commuter Rail,,Commuter Rail,42.559074,-71.588476,CR-zone-8,,https://www.mbta.com/stops/place-FR-0361,,0,place-FR-0361,2,Ayer,,,2,,,,,,,,,DOT_ADMIN,2023/12/11 19:40:12+00,DOT_ADMIN,2023/12/11 19:40:12+00
-71.5884760000937,42.5590740003412,663040,FR-0361-01,,Ayer,Ayer - Commuter Rail - Track 1,1,Track 1,42.559074,-71.588476,CR-zone-8,,https://www.mbta.com/stops/place-FR-0361,,0,place-FR-0361,2,Ayer,,,2,,,,,,,,,DOT_ADMIN,2023/12/11 19:40:12+00,DOT_ADMIN,2023/12/11 19:40:12+00
-71.5884760000937,42.5590740003412,663041,FR-0361-02,,Ayer,Ayer - Commuter Rail - Track 2,2,Track 2,42.559074,-71.588476,CR-zone-8,,https://www.mbta.com/stops/place-FR-0361,,0,place-FR-0361,2,Ayer,,,2,,,,,,,,,DOT_ADMIN,2023/12/11 19:40:12+00,DOT_ADMIN,2023/12/11 19:40:12+00
-71.6480039996426,42.5450889996219,663043,FR-0394,,Shirley,Shirley - Commuter Rail,,Commuter Rail,42.545089,-71.648004,CR-zone-8,,https://www.mbta.com/stops/place-FR-0394,,0,place-FR-0394,2,Shirley,,,2,,,,,,,,,DOT_ADMIN,2023/12/11 19:40:12+00,DOT_ADMIN,2023/12/11 19:40:12+00
-71.6480039996426,42.5450889996219,663044,FR-0394-01,,Shirley,Shirley - Commuter Rail - Track 1,1,Track 1,42.545089,-71.648004,CR-zone-8,,https://www.mbta.com/stops/place-FR-0394,,0,place-FR-0394,2,Shirley,,,2,,,,,,,,,DOT_ADMIN,2023/12/11 19:40:12+00,DOT_ADMIN,2023/12/11 19:40:12+00
-71.6480039996426,42.5450889996219,663045,FR-0394-02,,Shirley,Shirley - Commuter Rail - Track 2,2,Track 2,42.545089,-71.648004,CR-zone-8,,https://www.mbta.com/stops/place-FR-0394,,0,place-FR-0394,2,Shirley,,,2,,,,,,,,,DOT_ADMIN,2023/12/11 19:40:12+00,DOT_ADMIN,2023/12/11 19:40:12+00
-71.7391860000439,42.5390170001064,663047,FR-0451,,North Leominster,North Leominster - Commuter Rail,,Commuter Rail,42.539017,-71.739186,CR-zone-8,,https://www.mbta.com/stops/place-FR-0451,,0,place-FR-0451,1,Leominster,,,2,,,,,,,,,DOT_ADMIN,2023/12/11 19:40:12+00,DOT_ADMIN,2023/12/11 19:40:12+00
-71.7391860000439,42.5390170001064,663048,FR-0451-01,,North Leominster,North Leominster - Commuter Rail - Track 1 (Outbound),1,Track 1 (Outbound),42.539017,-71.739186,CR-zone-8,,https://www.mbta.com/stops/place-FR-0451,,0,place-FR-0451,1,Leominster,,,2,,,,,,,,,DOT_ADMIN,2023/12/11 19:40:12+00,DOT_ADMIN,2023/12/11 19:40:12+00
-71.7391860000439,42.5390170001064,663049,FR-0451-02,,North Leominster,North Leominster - Commuter Rail - Track 2 (Boston),2,Track 2 (Boston),42.539017,-71.739186,CR-zone-8,,https://www.mbta.com/stops/place-FR-0451,,0,place-FR-0451,1,Leominster,,,2,,,,,,,,,DOT_ADMIN,2023/12/11 19:40:12+00,DOT_ADMIN,2023/12/11 19:40:12+00
-71.7926109999163,42.5807199998082,663051,FR-0494-CS,,Fitchburg,Fitchburg - Commuter Rail - Track 3 (All Trains),3,Track 3 (All Trains),42.58072,-71.792611,CR-zone-8,,https://www.mbta.com/stops/place-FR-0494,,0,place-FR-0494,1,Fitchburg,,,2,,,,,,,,,DOT_ADMIN,2023/12/11 19:40:12+00,DOT_ADMIN,2023/12/11 19:40:12+00
-71.8484880004438,42.5534769999955,663053,FR-3338-CS,,Wachusett,Wachusett - Commuter Rail - Track 3 (All Trains),3,Track 3 (All Trains),42.553477,-71.848488,CR-zone-8,,https://www.mbta.com/stops/place-FR-3338,,0,place-FR-3338,1,Fitchburg,,,2,,,,,,,,,DOT_ADMIN,2023/12/11 19:40:12+00,DOT_ADMIN,2023/12/11 19:40:12+00
-71.2615099994315,42.0950999997196,663055,FS-0049-S,,Foxboro,Foxboro - Commuter Rail - Track 1 (All Trains),1,Track 1 (All Trains),42.0951,-71.26151,CR-zone-4,,https://www.mbta.com/stops/place-FS-0049,,0,place-FS-0049,1,Foxborough,,,2,,,,,,,,,DOT_ADMIN,2023/12/11 19:40:12+00,DOT_ADMIN,2023/12/11 19:40:12+00
-70.8692539998447,42.5621710003886,663057,GB-0198,,Montserrat,Montserrat - Commuter Rail,,Commuter Rail,42.562171,-70.869254,CR-zone-4,,https://www.mbta.com/stops/place-GB-0198,,0,place-GB-0198,1,Beverly,,,2,,,,,,,,,DOT_ADMIN,2023/12/11 19:40:12+00,DOT_ADMIN,2023/12/11 19:40:12+00
-70.8692539998447,42.5621710003886,663058,GB-0198-01,,Montserrat,Montserrat - Commuter Rail - Track 1 (Outbound),1,Track 1 (Outbound),42.562171,-70.869254,CR-zone-4,,https://www.mbta.com/stops/place-GB-0198,,0,place-GB-0198,1,Beverly,,,2,,,,,,,,,DOT_ADMIN,2023/12/11 19:40:12+00,DOT_ADMIN,2023/12/11 19:40:12+00
-70.8692539998447,42.5621710003886,663059,GB-0198-02,,Montserrat,Montserrat - Commuter Rail - Track 2 (Boston),2,Track 2 (Boston),42.562171,-70.869254,CR-zone-4,,https://www.mbta.com/stops/place-GB-0198,,0,place-GB-0198,1,Beverly,,,2,,,,,,,,,DOT_ADMIN,2023/12/11 19:40:12+00,DOT_ADMIN,2023/12/11 19:40:12+00
-70.8255410001589,42.5594460002543,663061,GB-0222,,Prides Crossing,Prides Crossing - Commuter Rail,,Commuter Rail,42.559446,-70.825541,CR-zone-5,,https://www.mbta.com/stops/place-GB-0222,,0,place-GB-0222,2,Beverly,,,2,,,,,,,,,DOT_ADMIN,2023/12/11 19:40:12+00,DOT_ADMIN,2023/12/11 19:40:12+00
-70.8255410001589,42.5594460002543,663062,GB-0222-01,,Prides Crossing,Prides Crossing - Commuter Rail - Track 1,1,Track 1,42.559446,-70.825541,CR-zone-5,,https://www.mbta.com/stops/place-GB-0222,,0,place-GB-0222,2,Beverly,,,2,,,,,,,,,DOT_ADMIN,2023/12/11 19:40:12+00,DOT_ADMIN,2023/12/11 19:40:12+00
-70.8255410001589,42.5594460002543,663063,GB-0222-02,,Prides Crossing,Prides Crossing - Commuter Rail - Track 2,2,Track 2,42.559446,-70.825541,CR-zone-5,,https://www.mbta.com/stops/place-GB-0222,,0,place-GB-0222,2,Beverly,,,2,,,,,,,,,DOT_ADMIN,2023/12/11 19:40:12+00,DOT_ADMIN,2023/12/11 19:40:12+00
-70.8114049999216,42.5616510002294,663065,GB-0229,,Beverly Farms,Beverly Farms - Commuter Rail,,Commuter Rail,42.561651,-70.811405,CR-zone-5,,https://www.mbta.com/stops/place-GB-0229,,0,place-GB-0229,1,Beverly,,,2,,,,,,,,,DOT_ADMIN,2023/12/11 19:40:12+00,DOT_ADMIN,2023/12/11 19:40:12+00
-70.8114049999216,42.5616510002294,663066,GB-0229-01,,Beverly Farms,Beverly Farms - Commuter Rail - Track 1 (Outbound),1,Track 1 (Outbound),42.561651,-70.811405,CR-zone-5,,https://www.mbta.com/stops/place-GB-0229,,0,place-GB-0229,1,Beverly,,,2,,,,,,,,,DOT_ADMIN,2023/12/11 19:40:12+00,DOT_ADMIN,2023/12/11 19:40:12+00
-70.8114049999216,42.5616510002294,663067,GB-0229-02,,Beverly Farms,Beverly Farms - Commuter Rail - Track 2 (Boston),2,Track 2 (Boston),42.561651,-70.811405,CR-zone-5,,https://www.mbta.com/stops/place-GB-0229,,0,place-GB-0229,1,Beverly,,,2,,,,,,,,,DOT_ADMIN,2023/12/11 19:40:12+00,DOT_ADMIN,2023/12/11 19:40:12+00
-70.7700900001288,42.5736870002248,663069,GB-0254,,Manchester,Manchester - Commuter Rail,,Commuter Rail,42.573687,-70.77009,CR-zone-6,,https://www.mbta.com/stops/place-GB-0254,,0,place-GB-0254,1,Manchester-by-the-Sea,,,2,,,,,,,,,DOT_ADMIN,2023/12/11 19:40:12+00,DOT_ADMIN,2023/12/11 19:40:12+00
-70.7700900001288,42.5736870002248,663070,GB-0254-01,,Manchester,Manchester - Commuter Rail - Track 1 (Outbound),1,Track 1 (Outbound),42.573687,-70.77009,CR-zone-6,,https://www.mbta.com/stops/place-GB-0254,,0,place-GB-0254,1,Manchester-by-the-Sea,,,2,,,,,,,,,DOT_ADMIN,2023/12/11 19:40:12+00,DOT_ADMIN,2023/12/11 19:40:12+00
-70.7700900001288,42.5736870002248,663071,GB-0254-02,,Manchester,Manchester - Commuter Rail - Track 2 (Boston),2,Track 2 (Boston),42.573687,-70.77009,CR-zone-6,,https://www.mbta.com/stops/place-GB-0254,,0,place-GB-0254,1,Manchester-by-the-Sea,,,2,,,,,,,,,DOT_ADMIN,2023/12/11 19:40:12+00,DOT_ADMIN,2023/12/11 19:40:12+00
-70.7054170003843,42.6119329997541,663073,GB-0296,,West Gloucester,West Gloucester - Commuter Rail,,Commuter Rail,42.611933,-70.705417,CR-zone-7,,https://www.mbta.com/stops/place-GB-0296,,0,place-GB-0296,1,Gloucester,,,2,,,,,,,,,DOT_ADMIN,2023/12/11 19:40:12+00,DOT_ADMIN,2023/12/11 19:40:12+00
-70.7054170003843,42.6119329997541,663074,GB-0296-01,,West Gloucester,West Gloucester - Commuter Rail - Track 1 (Outbound),1,Track 1 (Outbound),42.611933,-70.705417,CR-zone-7,,https://www.mbta.com/stops/place-GB-0296,,0,place-GB-0296,1,Gloucester,,,2,,,,,,,,,DOT_ADMIN,2023/12/11 19:40:12+00,DOT_ADMIN,2023/12/11 19:40:12+00
-70.7054170003843,42.6119329997541,663075,GB-0296-02,,West Gloucester,West Gloucester - Commuter Rail - Track 2 (Boston),2,Track 2 (Boston),42.611933,-70.705417,CR-zone-7,,https://www.mbta.com/stops/place-GB-0296,,0,place-GB-0296,1,Gloucester,,,2,,,,,,,,,DOT_ADMIN,2023/12/11 19:40:12+00,DOT_ADMIN,2023/12/11 19:40:12+00
-70.6683449995761,42.6167989999768,663077,GB-0316-S,,Gloucester,Gloucester - Commuter Rail - Track 1 (All Trains),1,Track 1 (All Trains),42.616799,-70.668345,CR-zone-7,,https://www.mbta.com/stops/place-GB-0316,,0,place-GB-0316,1,Gloucester,,,2,,,,,,,,,DOT_ADMIN,2023/12/11 19:40:12+00,DOT_ADMIN,2023/12/11 19:40:12+00
-70.6270550000776,42.6554909998338,663079,GB-0353-S,,Rockport,Rockport - Commuter Rail - Track 1 (All Trains),1,Track 1 (All Trains),42.655491,-70.627055,CR-zone-8,,https://www.mbta.com/stops/place-GB-0353,,0,place-GB-0353,1,Rockport,,,2,,,,,,,,,DOT_ADMIN,2023/12/11 19:40:12+00,DOT_ADMIN,2023/12/11 19:40:12+00
-70.968152000305,42.2215029996627,663081,GRB-0118-S,,Weymouth Landing/East Braintree,Weymouth Landing/East Braintree - Commuter Rail - Track 1 (All Trains),1,Track 1 (All Trains),42.221503,-70.968152,CR-zone-2,,https://www.mbta.com/stops/place-GRB-0118,,0,place-GRB-0118,1,Weymouth,,,2,,,,,,,,,DOT_ADMIN,2023/12/11 19:40:12+00,DOT_ADMIN,2023/12/11 19:40:12+00
-70.9214000002578,42.2190999997583,663083,GRB-0146-S,,East Weymouth,East Weymouth - Commuter Rail - Track 1 (All Trains),1,Track 1 (All Trains),42.2191,-70.9214,CR-zone-2,,https://www.mbta.com/stops/place-GRB-0146,,0,place-GRB-0146,1,Weymouth,,,2,,,,,,,,,DOT_ADMIN,2023/12/11 19:40:12+00,DOT_ADMIN,2023/12/11 19:40:12+00
-70.9027080005242,42.2358380001171,663085,GRB-0162-S,,West Hingham,West Hingham - Commuter Rail - Track 1 (All Trains),1,Track 1 (All Trains),42.235838,-70.902708,CR-zone-3,,https://www.mbta.com/stops/place-GRB-0162,,0,place-GRB-0162,1,Hingham,,,2,,,,,,,,,DOT_ADMIN,2023/12/11 19:40:12+00,DOT_ADMIN,2023/12/11 19:40:12+00
-70.8692049996211,42.2449589996653,663087,GRB-0183-S,,Nantasket Junction,Nantasket Junction - Commuter Rail - Track 1 (All Trains),1,Track 1 (All Trains),42.244959,-70.869205,CR-zone-4,,https://www.mbta.com/stops/place-GRB-0183,,0,place-GRB-0183,1,Hingham,,,2,,,,,,,,,DOT_ADMIN,2023/12/11 19:40:12+00,DOT_ADMIN,2023/12/11 19:40:12+00
-70.8375290004326,42.2442099998538,663089,GRB-0199-S,,Cohasset,Cohasset - Commuter Rail - Track 1 (All Trains),1,Track 1 (All Trains),42.24421,-70.837529,CR-zone-4,,https://www.mbta.com/stops/place-GRB-0199,,0,place-GRB-0199,1,Cohasset,,,2,,,,,,,,,DOT_ADMIN,2023/12/11 19:40:12+00,DOT_ADMIN,2023/12/11 19:40:12+00
-70.7886019997829,42.2195280004449,663091,GRB-0233-S,,North Scituate,North Scituate - Commuter Rail - Track 1 (All Trains),1,Track 1 (All Trains),42.219528,-70.788602,CR-zone-5,,https://www.mbta.com/stops/place-GRB-0233,,0,place-GRB-0233,1,Scituate,,,2,,,,,,,,,DOT_ADMIN,2023/12/11 19:40:12+00,DOT_ADMIN,2023/12/11 19:40:12+00
-70.7466410005413,42.1787760000106,663093,GRB-0276-S,,Greenbush,Greenbush - Commuter Rail - Track 1 (All Trains),1,Track 1 (All Trains),42.178776,-70.746641,CR-zone-6,,https://www.mbta.com/stops/place-GRB-0276,,0,place-GRB-0276,1,Scituate,,,2,,,,,,,,,DOT_ADMIN,2023/12/11 19:40:12+00,DOT_ADMIN,2023/12/11 19:40:12+00
-70.7217089995443,41.977619999866,663095,KB-0351-S,,Kingston,Kingston - Commuter Rail - Track 1 (All Trains),1,Track 1 (All Trains),41.97762,-70.721709,CR-zone-8,,https://www.mbta.com/stops/place-KB-0351,,0,place-KB-0351,1,Kingston,,,2,,,,,,,,,DOT_ADMIN,2023/12/11 19:40:12+00,DOT_ADMIN,2023/12/11 19:40:12+00
-71.0273709996976,42.1563429996405,663098,MM-0150-S,,Holbrook/Randolph,Holbrook/Randolph - Commuter Rail - Track 1 (All Trains),1,Track 1 (All Trains),42.156343,-71.027371,CR-zone-3,,https://www.mbta.com/stops/place-MM-0150,,0,place-MM-0150,1,Randolph,,,2,,,,,,,,,DOT_ADMIN,2023/12/11 19:40:12+00,DOT_ADMIN,2023/12/11 19:40:12+00
-71.0220010002276,42.1065549999381,663101,MM-0186,,Montello,Montello - Commuter Rail,,Commuter Rail,42.106555,-71.022001,CR-zone-4,,https://www.mbta.com/stops/place-MM-0186,,0,place-MM-0186,1,Brockton,,,2,,,,,,,,,DOT_ADMIN,2023/12/11 19:40:12+00,DOT_ADMIN,2023/12/11 19:40:12+00
-71.0220010002276,42.1065549999381,663102,MM-0186-CS,,Montello,Montello - Commuter Rail - Track 2,2,Track 2,42.106555,-71.022001,CR-zone-4,,https://www.mbta.com/stops/place-MM-0186,,0,place-MM-0186,1,Brockton,,,2,,,,,,,,,DOT_ADMIN,2023/12/11 19:40:12+00,DOT_ADMIN,2023/12/11 19:40:12+00
-71.0220010002276,42.1065549999381,663103,MM-0186-S,,Montello,Montello - Commuter Rail - Track 1,1,Track 1,42.106555,-71.022001,CR-zone-4,,https://www.mbta.com/stops/place-MM-0186,,0,place-MM-0186,1,Brockton,,,2,,,,,,,,,DOT_ADMIN,2023/12/11 19:40:12+00,DOT_ADMIN,2023/12/11 19:40:12+00
-71.0165339994903,42.0846589996182,663105,MM-0200,,Brockton,Brockton - Commuter Rail,,Commuter Rail,42.084659,-71.016534,CR-zone-4,,https://www.mbta.com/stops/place-MM-0200,,0,place-MM-0200,1,Brockton,,,2,,,,,,,,,DOT_ADMIN,2023/12/11 19:40:12+00,DOT_ADMIN,2023/12/11 19:40:12+00
-71.0165339994903,42.0846589996182,663106,MM-0200-CS,,Brockton,Brockton - Commuter Rail - Track 2,2,Track 2,42.084659,-71.016534,CR-zone-4,,https://www.mbta.com/stops/place-MM-0200,,0,place-MM-0200,1,Brockton,,,2,,,,,,,,,DOT_ADMIN,2023/12/11 19:40:12+00,DOT_ADMIN,2023/12/11 19:40:12+00
-71.0165339994903,42.0846589996182,663107,MM-0200-S,,Brockton,Brockton - Commuter Rail - Track 1,1,Track 1,42.084659,-71.016534,CR-zone-4,,https://www.mbta.com/stops/place-MM-0200,,0,place-MM-0200,1,Brockton,,,2,,,,,,,,,DOT_ADMIN,2023/12/11 19:40:12+00,DOT_ADMIN,2023/12/11 19:40:12+00
-71.0110040005951,42.0609510000622,663109,MM-0219-S,,Campello,Campello - Commuter Rail - Track 1 (All Trains),1,Track 1 (All Trains),42.060951,-71.011004,CR-zone-5,,https://www.mbta.com/stops/place-MM-0219,,0,place-MM-0219,1,Brockton,,,2,,,,,,,,,DOT_ADMIN,2023/12/11 19:40:12+00,DOT_ADMIN,2023/12/11 19:40:12+00
-70.9653699996789,41.9849159998742,663111,MM-0277-S,,Bridgewater,Bridgewater - Commuter Rail - Track 1 (All Trains),1,Track 1 (All Trains),41.984916,-70.96537,CR-zone-6,,https://www.mbta.com/stops/place-MM-0277,,0,place-MM-0277,1,Bridgewater,,,2,,,,,,,,,DOT_ADMIN,2023/12/11 19:40:12+00,DOT_ADMIN,2023/12/11 19:40:12+00
-70.9184439996613,41.8782099996425,663113,MM-0356-S,,Middleborough/Lakeville,Middleborough/Lakeville - Commuter Rail - Track 1 (All Trains),1,Track 1 (All Trains),41.87821,-70.918444,CR-zone-8,,https://www.mbta.com/stops/place-MM-0356,,0,place-MM-0356,1,Lakeville,,,2,,,,,,,,,DOT_ADMIN,2023/12/11 19:40:12+00,DOT_ADMIN,2023/12/11 19:40:12+00
-71.1302829997004,42.2874419999401,663115,NB-0064-S,,Roslindale Village,Roslindale Village - Commuter Rail - Track 1 (All Trains),1,Track 1 (All Trains),42.287442,-71.130283,CR-zone-1,,https://www.mbta.com/stops/place-NB-0064,,0,place-NB-0064,1,Boston,,,2,,,,,,,,,DOT_ADMIN,2023/12/11 19:40:12+00,DOT_ADMIN,2023/12/11 19:40:12+00
-71.1455570000515,42.2865880002073,663117,NB-0072-S,,Bellevue,Bellevue - Commuter Rail - Track 1 (All Trains),1,Track 1 (All Trains),42.286588,-71.145557,CR-zone-1,,https://www.mbta.com/stops/place-NB-0072,,0,place-NB-0072,1,Boston,,,2,,,,,,,,,DOT_ADMIN,2023/12/11 19:40:12+00,DOT_ADMIN,2023/12/11 19:40:12+00
-71.1539370003174,42.2849689998576,663119,NB-0076-S,,Highland,Highland - Commuter Rail - Track 1 (All Trains),1,Track 1 (All Trains),42.284969,-71.153937,CR-zone-1,,https://www.mbta.com/stops/place-NB-0076,,0,place-NB-0076,1,Boston,,,2,,,,,,,,,DOT_ADMIN,2023/12/11 19:40:12+00,DOT_ADMIN,2023/12/11 19:40:12+00
-71.1600650003912,42.2813580002089,663121,NB-0080-S,,West Roxbury,West Roxbury - Commuter Rail - Track 1 (All Trains),1,Track 1 (All Trains),42.281358,-71.160065,CR-zone-1,,https://www.mbta.com/stops/place-NB-0080,,0,place-NB-0080,1,Boston,,,2,,,,,,,,,DOT_ADMIN,2023/12/11 19:40:12+00,DOT_ADMIN,2023/12/11 19:40:12+00
-71.2155279996205,42.2756479998167,663123,NB-0109-S,,Hersey,Hersey - Commuter Rail - Track 1 (All Trains),1,Track 1 (All Trains),42.275648,-71.215528,CR-zone-2,,https://www.mbta.com/stops/place-NB-0109,,0,place-NB-0109,1,Needham,,,2,,,,,,,,,DOT_ADMIN,2023/12/11 19:40:12+00,DOT_ADMIN,2023/12/11 19:40:12+00
-71.2355589999247,42.2731869999246,663126,NB-0120-S,,Needham Junction,Needham Junction - Commuter Rail - Track 1 (All Trains),1,Track 1 (All Trains),42.273187,-71.235559,CR-zone-2,,https://www.mbta.com/stops/place-NB-0120,,0,place-NB-0120,1,Needham,,,2,,,,,,,,,DOT_ADMIN,2023/12/11 19:40:12+00,DOT_ADMIN,2023/12/11 19:40:12+00
-71.2376859995389,42.2807750004235,663128,NB-0127-S,,Needham Center,Needham Center - Commuter Rail - Track 1 (All Trains),1,Track 1 (All Trains),42.280775,-71.237686,CR-zone-2,,https://www.mbta.com/stops/place-NB-0127,,0,place-NB-0127,1,Needham,,,2,,,,,,,,,DOT_ADMIN,2023/12/11 19:40:12+00,DOT_ADMIN,2023/12/11 19:40:12+00
-71.2360270004457,42.293443999929,663130,NB-0137-S,,Needham Heights,Needham Heights - Commuter Rail - Track 1 (All Trains),1,Track 1 (All Trains),42.293444,-71.236027,CR-zone-2,,https://www.mbta.com/stops/place-NB-0137,,0,place-NB-0137,1,Needham,,,2,,,,,,,,,DOT_ADMIN,2023/12/11 19:40:12+00,DOT_ADMIN,2023/12/11 19:40:12+00
-71.4911469995525,41.5812889999559,663132,NEC-1659-03,,Wickford Junction,Wickford Junction - Commuter Rail - Track 3 (All Trains),3,Track 3 (All Trains),41.581289,-71.491147,CR-zone-10,,https://www.mbta.com/stops/place-NEC-1659,,0,place-NEC-1659,1,North Kingstown,,,2,,,,,,,,,DOT_ADMIN,2023/12/11 19:40:12+00,DOT_ADMIN,2023/12/11 19:40:12+00
-71.4424530004059,41.7265990000663,663134,NEC-1768-03,,TF Green Airport,TF Green Airport - Commuter Rail - Track 3 (All Trains),3,Track 3 (All Trains),41.726599,-71.442453,CR-zone-9,,https://www.mbta.com/stops/place-NEC-1768,,0,place-NEC-1768,1,Warwick,,,2,,,,,,,,,DOT_ADMIN,2023/12/11 19:40:12+00,DOT_ADMIN,2023/12/11 19:40:12+00
-71.4133009999835,41.829293000336,663136,NEC-1851,,Providence,Providence - Commuter Rail,,Commuter Rail,41.829293,-71.413301,CR-zone-8,,https://www.mbta.com/stops/place-NEC-1851,,0,place-NEC-1851,1,Providence,,,2,,,,,,,,,DOT_ADMIN,2023/12/11 19:40:12+00,DOT_ADMIN,2023/12/11 19:40:12+00
-71.4133009999835,41.829293000336,663137,NEC-1851-01,,Providence,Providence - Commuter Rail - Track 1,1,Track 1,41.829293,-71.413301,CR-zone-8,,https://www.mbta.com/stops/place-NEC-1851,,0,place-NEC-1851,1,Providence,,,2,,,,,,,,,DOT_ADMIN,2023/12/11 19:40:12+00,DOT_ADMIN,2023/12/11 19:40:12+00
-71.4133009999835,41.829293000336,663138,NEC-1851-02,,Providence,Providence - Commuter Rail - Track 2,2,Track 2,41.829293,-71.413301,CR-zone-8,,https://www.mbta.com/stops/place-NEC-1851,,0,place-NEC-1851,1,Providence,,,2,,,,,,,,,DOT_ADMIN,2023/12/11 19:40:12+00,DOT_ADMIN,2023/12/11 19:40:12+00
-71.4133009999835,41.829293000336,663139,NEC-1851-03,,Providence,Providence - Commuter Rail - Track 3,3,Track 3,41.829293,-71.413301,CR-zone-8,,https://www.mbta.com/stops/place-NEC-1851,,0,place-NEC-1851,1,Providence,,,2,,,,,,,,,DOT_ADMIN,2023/12/11 19:40:12+00,DOT_ADMIN,2023/12/11 19:40:12+00
-71.4133009999835,41.829293000336,663140,NEC-1851-05,,Providence,Providence - Commuter Rail - Track 5,5,Track 5,41.829293,-71.413301,CR-zone-8,,https://www.mbta.com/stops/place-NEC-1851,,0,place-NEC-1851,1,Providence,,,2,,,,,,,,,DOT_ADMIN,2023/12/11 19:40:12+00,DOT_ADMIN,2023/12/11 19:40:12+00
-71.3919999997004,41.878761999768,663142,NEC-1891,,Pawtucket/Central Falls,Pawtucket/Central Falls - Commuter Rail,,Commuter Rail,41.878762,-71.392,CR-zone-8,,https://www.mbta.com/stops/place-NEC-1891,,0,place-NEC-1891,1,Pawtucket,,,2,,,,,,,,,DOT_ADMIN,2023/12/11 19:40:12+00,DOT_ADMIN,2023/12/11 19:40:12+00
-71.3920479997294,41.87880400032,663143,NEC-1891-01,,Pawtucket/Central Falls,Pawtucket/Central Falls - Commuter Rail - Track 1 (Outbound),1,Track 1 (Outbound),41.878804,-71.392048,CR-zone-8,,https://www.mbta.com/stops/place-NEC-1891,,0,place-NEC-1891,1,Pawtucket,,,2,,,,,,,,,DOT_ADMIN,2023/12/11 19:40:12+00,DOT_ADMIN,2023/12/11 19:40:12+00
-71.3919589999275,41.8787209998024,663144,NEC-1891-02,,Pawtucket/Central Falls,Pawtucket/Central Falls - Commuter Rail - Track 2 (Boston),2,Track 2 (Boston),41.878721,-71.391959,CR-zone-8,,https://www.mbta.com/stops/place-NEC-1891,,0,place-NEC-1891,1,Pawtucket,,,2,,,,,,,,,DOT_ADMIN,2023/12/11 19:40:12+00,DOT_ADMIN,2023/12/11 19:40:12+00
-71.354621000456,41.8979429996079,663149,NEC-1919,,South Attleboro,South Attleboro - Commuter Rail,,Commuter Rail,41.897943,-71.354621,CR-zone-7,,https://www.mbta.com/stops/place-NEC-1919,,0,place-NEC-1919,1,Attleboro,,,2,,,,,,,,,DOT_ADMIN,2023/12/11 19:40:12+00,DOT_ADMIN,2023/12/11 19:40:12+00
-71.354621000456,41.8979429996079,663150,NEC-1919-01,,South Attleboro,South Attleboro - Commuter Rail - Track 1 (Outbound),1,Track 1 (Outbound),41.897943,-71.354621,CR-zone-7,,https://www.mbta.com/stops/place-NEC-1919,,0,place-NEC-1919,1,Attleboro,,,2,,,,,,,,,DOT_ADMIN,2023/12/11 19:40:12+00,DOT_ADMIN,2023/12/11 19:40:12+00
-71.354621000456,41.8979429996079,663151,NEC-1919-02,,South Attleboro,South Attleboro - Commuter Rail - Track 2 (Boston),2,Track 2 (Boston),41.897943,-71.354621,CR-zone-7,,https://www.mbta.com/stops/place-NEC-1919,,0,place-NEC-1919,1,Attleboro,,,2,,,,,,,,,DOT_ADMIN,2023/12/11 19:40:12+00,DOT_ADMIN,2023/12/11 19:40:12+00
-71.2850939999167,41.9407389999679,663153,NEC-1969,,Attleboro,Attleboro - Commuter Rail,,Commuter Rail,41.940739,-71.285094,CR-zone-7,,https://www.mbta.com/stops/place-NEC-1969,,0,place-NEC-1969,1,Attleboro,,,2,,,,,,,,,DOT_ADMIN,2023/12/11 19:40:12+00,DOT_ADMIN,2023/12/11 19:40:12+00
-71.2850939999167,41.9407389999679,663154,NEC-1969-03,,Attleboro,Attleboro - Commuter Rail - Track 3 (Outbound),3,Track 3 (Outbound),41.940739,-71.285094,CR-zone-7,,https://www.mbta.com/stops/place-NEC-1969,,0,place-NEC-1969,1,Attleboro,,,2,,,,,,,,,DOT_ADMIN,2023/12/11 19:40:12+00,DOT_ADMIN,2023/12/11 19:40:12+00
-71.2850939999167,41.9407389999679,663155,NEC-1969-04,,Attleboro,Attleboro - Commuter Rail - Track 4 (Boston),4,Track 4 (Boston),41.940739,-71.285094,CR-zone-7,,https://www.mbta.com/stops/place-NEC-1969,,0,place-NEC-1969,1,Attleboro,,,2,,,,,,,,,DOT_ADMIN,2023/12/11 19:40:12+00,DOT_ADMIN,2023/12/11 19:40:12+00
-71.219917000381,42.0327869998204,663157,NEC-2040,,Mansfield,Mansfield - Commuter Rail,,Commuter Rail,42.032787,-71.219917,CR-zone-6,,https://www.mbta.com/stops/place-NEC-2040,,0,place-NEC-2040,1,Mansfield,,,2,,,,,,,,,DOT_ADMIN,2023/12/11 19:40:12+00,DOT_ADMIN,2023/12/11 19:40:12+00
-71.219917000381,42.0327869998204,663158,NEC-2040-01,,Mansfield,Mansfield - Commuter Rail - Track 1 (Outbound),1,Track 1 (Outbound),42.032787,-71.219917,CR-zone-6,,https://www.mbta.com/stops/place-NEC-2040,,0,place-NEC-2040,1,Mansfield,,,2,,,,,,,,,DOT_ADMIN,2023/12/11 19:40:12+00,DOT_ADMIN,2023/12/11 19:40:12+00
-71.219917000381,42.0327869998204,663159,NEC-2040-02,,Mansfield,Mansfield - Commuter Rail - Track 2 (Boston),2,Track 2 (Boston),42.032787,-71.219917,CR-zone-6,,https://www.mbta.com/stops/place-NEC-2040,,0,place-NEC-2040,1,Mansfield,,,2,,,,,,,,,DOT_ADMIN,2023/12/11 19:40:12+00,DOT_ADMIN,2023/12/11 19:40:12+00
-71.1844680000021,42.1245529997899,663161,NEC-2108,,Sharon,Sharon - Commuter Rail,,Commuter Rail,42.124553,-71.184468,CR-zone-4,,https://www.mbta.com/stops/place-NEC-2108,,0,place-NEC-2108,1,Sharon,,,2,,,,,,,,,DOT_ADMIN,2023/12/11 19:40:12+00,DOT_ADMIN,2023/12/11 19:40:12+00
-71.1844680000021,42.1245529997899,663162,NEC-2108-01,,Sharon,Sharon - Commuter Rail - Track 1 (Outbound),1,Track 1 (Outbound),42.124553,-71.184468,CR-zone-4,,https://www.mbta.com/stops/place-NEC-2108,,0,place-NEC-2108,1,Sharon,,,2,,,,,,,,,DOT_ADMIN,2023/12/11 19:40:12+00,DOT_ADMIN,2023/12/11 19:40:12+00
-71.1844680000021,42.1245529997899,663163,NEC-2108-02,,Sharon,Sharon - Commuter Rail - Track 2 (Boston),2,Track 2 (Boston),42.124553,-71.184468,CR-zone-4,,https://www.mbta.com/stops/place-NEC-2108,,0,place-NEC-2108,1,Sharon,,,2,,,,,,,,,DOT_ADMIN,2023/12/11 19:40:12+00,DOT_ADMIN,2023/12/11 19:40:12+00
-71.1537599998883,42.1632039996229,663165,NEC-2139,,Canton Junction,Canton Junction - Commuter Rail,,Commuter Rail,42.163204,-71.15376,CR-zone-3,,https://www.mbta.com/stops/place-NEC-2139,,0,place-NEC-2139,1,Canton,,,2,,,,,,,,,DOT_ADMIN,2023/12/11 19:40:12+00,DOT_ADMIN,2023/12/11 19:40:12+00
-71.1538280002827,42.162024000408,663166,NEC-2139-01,,Canton Junction,Canton Junction - Commuter Rail - Track 1,1,Track 1,42.162024,-71.153828,CR-zone-3,,https://www.mbta.com/stops/place-NEC-2139,,0,place-NEC-2139,1,Canton,,,2,,,,,,,,,DOT_ADMIN,2023/12/11 19:40:12+00,DOT_ADMIN,2023/12/11 19:40:12+00
-71.1537180005476,42.1621969996767,663167,NEC-2139-02,,Canton Junction,Canton Junction - Commuter Rail - Track 2,2,Track 2,42.162197,-71.153718,CR-zone-3,,https://www.mbta.com/stops/place-NEC-2139,,0,place-NEC-2139,1,Canton,,,2,,,,,,,,,DOT_ADMIN,2023/12/11 19:40:12+00,DOT_ADMIN,2023/12/11 19:40:12+00
-71.1528370001905,42.1617460000695,663168,SB-0150-04,,Canton Junction,Canton Junction - Commuter Rail - Track 4,4,Track 4,42.161746,-71.152837,CR-zone-3,,https://www.mbta.com/stops/place-NEC-2139,,0,place-NEC-2139,1,Canton,,,2,,,,,,,,,DOT_ADMIN,2023/12/11 19:40:12+00,DOT_ADMIN,2023/12/11 19:40:12+00
-71.1535810002866,42.1631149997473,663169,SB-0150-06,,Canton Junction,Canton Junction - Commuter Rail - Track 6,6,Track 6,42.163115,-71.153581,CR-zone-3,,https://www.mbta.com/stops/place-NEC-2139,,0,place-NEC-2139,1,Canton,,,2,,,,,,,,,DOT_ADMIN,2023/12/11 19:40:12+00,DOT_ADMIN,2023/12/11 19:40:12+00
-71.1471340002391,42.2103080000569,663171,NEC-2173,,Route 128,Route 128 - Commuter Rail,,Commuter Rail,42.210308,-71.147134,CR-zone-2,,https://www.mbta.com/stops/place-NEC-2173,,0,place-NEC-2173,1,Westwood,,,2,,,,,,,,,DOT_ADMIN,2023/12/11 19:40:12+00,DOT_ADMIN,2023/12/11 19:40:12+00
-71.1471340002391,42.2103080000569,663172,NEC-2173-01,,Route 128,Route 128 - Commuter Rail - Track 1 (Outbound),1,Track 1 (Outbound),42.210308,-71.147134,CR-zone-2,,https://www.mbta.com/stops/place-NEC-2173,,0,place-NEC-2173,1,Westwood,,,2,,,,,,,,,DOT_ADMIN,2023/12/11 19:40:12+00,DOT_ADMIN,2023/12/11 19:40:12+00
-71.1471340002391,42.2103080000569,663173,NEC-2173-02,,Route 128,Route 128 - Commuter Rail - Track 2 (Boston),2,Track 2 (Boston),42.210308,-71.147134,CR-zone-2,,https://www.mbta.com/stops/place-NEC-2173,,0,place-NEC-2173,1,Westwood,,,2,,,,,,,,,DOT_ADMIN,2023/12/11 19:40:12+00,DOT_ADMIN,2023/12/11 19:40:12+00
-71.1255260002467,42.2550300003646,663175,NEC-2203,,Hyde Park,Hyde Park - Commuter Rail,,Commuter Rail,42.25503,-71.125526,CR-zone-1,,https://www.mbta.com/stops/place-NEC-2203,,0,place-NEC-2203,1,Boston,,,2,,,,,,,,,DOT_ADMIN,2023/12/11 19:40:12+00,DOT_ADMIN,2023/12/11 19:40:12+00
-71.1255260002467,42.2550300003646,663176,NEC-2203-02,,Hyde Park,Hyde Park - Commuter Rail - Track 2 (South Station),2,Track 2 (South Station),42.25503,-71.125526,CR-zone-1,,https://www.mbta.com/stops/place-NEC-2203,,0,place-NEC-2203,1,Boston,,,2,,,,,,,,,DOT_ADMIN,2023/12/11 19:40:12+00,DOT_ADMIN,2023/12/11 19:40:12+00
-71.1255260002467,42.2550300003646,663177,NEC-2203-03,,Hyde Park,Hyde Park - Commuter Rail - Track 3 (Outbound),3,Track 3 (Outbound),42.25503,-71.125526,CR-zone-1,,https://www.mbta.com/stops/place-NEC-2203,,0,place-NEC-2203,1,Boston,,,2,,,,,,,,,DOT_ADMIN,2023/12/11 19:40:12+00,DOT_ADMIN,2023/12/11 19:40:12+00
-71.1333419997069,42.4217760004189,663179,NHRML-0055,,West Medford,West Medford - Commuter Rail,,Commuter Rail,42.421776,-71.133342,CR-zone-1A,,https://www.mbta.com/stops/place-NHRML-0055,,0,place-NHRML-0055,2,Medford,,,2,,,,,,,,,DOT_ADMIN,2023/12/11 19:40:12+00,DOT_ADMIN,2023/12/11 19:40:12+00
-71.1333419997069,42.4217760004189,663180,NHRML-0055-01,,West Medford,West Medford - Commuter Rail - Track 1 (Outbound),1,Track 1 (Outbound),42.421776,-71.133342,CR-zone-1A,,https://www.mbta.com/stops/place-NHRML-0055,,0,place-NHRML-0055,2,Medford,,,2,,,,,,,,,DOT_ADMIN,2023/12/11 19:40:12+00,DOT_ADMIN,2023/12/11 19:40:12+00
-71.1333419997069,42.4217760004189,663181,NHRML-0055-02,,West Medford,West Medford - Commuter Rail - Track 2 (Boston),2,Track 2 (Boston),42.421776,-71.133342,CR-zone-1A,,https://www.mbta.com/stops/place-NHRML-0055,,0,place-NHRML-0055,2,Medford,,,2,,,,,,,,,DOT_ADMIN,2023/12/11 19:40:12+00,DOT_ADMIN,2023/12/11 19:40:12+00
-71.1401689997655,42.4449480001768,663183,NHRML-0073,,Wedgemere,Wedgemere - Commuter Rail,,Commuter Rail,42.444948,-71.140169,CR-zone-1,,https://www.mbta.com/stops/place-NHRML-0073,,0,place-NHRML-0073,1,Winchester,,,2,,,,,,,,,DOT_ADMIN,2023/12/11 19:40:12+00,DOT_ADMIN,2023/12/11 19:40:12+00
-71.1401689997655,42.4449480001768,663184,NHRML-0073-01,,Wedgemere,Wedgemere - Commuter Rail - Track 1 (Outbound),1,Track 1 (Outbound),42.444948,-71.140169,CR-zone-1,,https://www.mbta.com/stops/place-NHRML-0073,,0,place-NHRML-0073,1,Winchester,,,2,,,,,,,,,DOT_ADMIN,2023/12/11 19:40:12+00,DOT_ADMIN,2023/12/11 19:40:12+00
-71.1401689997655,42.4449480001768,663185,NHRML-0073-02,,Wedgemere,Wedgemere - Commuter Rail - Track 2 (Boston),2,Track 2 (Boston),42.444948,-71.140169,CR-zone-1,,https://www.mbta.com/stops/place-NHRML-0073,,0,place-NHRML-0073,1,Winchester,,,2,,,,,,,,,DOT_ADMIN,2023/12/11 19:40:12+00,DOT_ADMIN,2023/12/11 19:40:12+00
-71.1378300003854,42.4510880000676,663187,NHRML-0078,,Winchester Center,Winchester Center - Commuter Rail,,Commuter Rail,42.451088,-71.13783,CR-zone-1,,https://www.mbta.com/stops/place-NHRML-0078,,0,place-NHRML-0078,2,Winchester,,,2,,,,,,,,,DOT_ADMIN,2023/12/11 19:40:12+00,DOT_ADMIN,2023/12/11 19:40:12+00
-71.1378300003854,42.4510880000676,663188,NHRML-0078-01,,Winchester Center,Winchester Center - Commuter Rail - Track 1 (Outbound),1,Track 1 (Outbound),42.451088,-71.13783,CR-zone-1,,https://www.mbta.com/stops/place-NHRML-0078,,0,place-NHRML-0078,2,Winchester,,,2,,,,,,,,,DOT_ADMIN,2023/12/11 19:40:12+00,DOT_ADMIN,2023/12/11 19:40:12+00
-71.1378300003854,42.4510880000676,663189,NHRML-0078-02,,Winchester Center,Winchester Center - Commuter Rail - Track 2 (Boston),2,Track 2 (Boston),42.451088,-71.13783,CR-zone-1,,https://www.mbta.com/stops/place-NHRML-0078,,0,place-NHRML-0078,2,Winchester,,,2,,,,,,,,,DOT_ADMIN,2023/12/11 19:40:12+00,DOT_ADMIN,2023/12/11 19:40:12+00
-71.1376180005055,42.5044019996227,663191,NHRML-0116,,Mishawum,Mishawum - Commuter Rail,,Commuter Rail,42.504402,-71.137618,CR-zone-2,,https://www.mbta.com/stops/place-NHRML-0116,,0,place-NHRML-0116,2,Woburn,,,2,,,,,,,,,DOT_ADMIN,2023/12/11 19:40:12+00,DOT_ADMIN,2023/12/11 19:40:12+00
-71.1376180005055,42.5044019996227,663192,NHRML-0116-01,,Mishawum,Mishawum - Commuter Rail - Track 1 (Outbound),1,Track 1 (Outbound),42.504402,-71.137618,CR-zone-2,,https://www.mbta.com/stops/place-NHRML-0116,,0,place-NHRML-0116,2,Woburn,,,2,,,,,,,,,DOT_ADMIN,2023/12/11 19:40:12+00,DOT_ADMIN,2023/12/11 19:40:12+00
-71.1376180005055,42.5044019996227,663193,NHRML-0116-02,,Mishawum,Mishawum - Commuter Rail - Track 2 (Boston),2,Track 2 (Boston),42.504402,-71.137618,CR-zone-2,,https://www.mbta.com/stops/place-NHRML-0116,,0,place-NHRML-0116,2,Woburn,,,2,,,,,,,,,DOT_ADMIN,2023/12/11 19:40:12+00,DOT_ADMIN,2023/12/11 19:40:12+00
-71.1444750005372,42.5169870002745,663195,NHRML-0127,,Anderson/Woburn,Anderson/Woburn - Commuter Rail,,Commuter Rail,42.516987,-71.144475,CR-zone-2,,https://www.mbta.com/stops/place-NHRML-0127,,0,place-NHRML-0127,1,Woburn,,,2,,,,,,,,,DOT_ADMIN,2023/12/11 19:40:12+00,DOT_ADMIN,2023/12/11 19:40:12+00
-71.1444750005372,42.5169870002745,663196,NHRML-0127-01,,Anderson/Woburn,Anderson/Woburn - Commuter Rail - Track 1 (Outbound),1,Track 1 (Outbound),42.516987,-71.144475,CR-zone-2,,https://www.mbta.com/stops/place-NHRML-0127,,0,place-NHRML-0127,1,Woburn,,,2,,,,,,,,,DOT_ADMIN,2023/12/11 19:40:12+00,DOT_ADMIN,2023/12/11 19:40:12+00
-71.1444750005372,42.5169870002745,663197,NHRML-0127-02,,Anderson/Woburn,Anderson/Woburn - Commuter Rail - Track 2 (Boston),2,Track 2 (Boston),42.516987,-71.144475,CR-zone-2,,https://www.mbta.com/stops/place-NHRML-0127,,0,place-NHRML-0127,1,Woburn,,,2,,,,,,,,,DOT_ADMIN,2023/12/11 19:40:12+00,DOT_ADMIN,2023/12/11 19:40:12+00
-71.1743340001433,42.5466239999303,663199,NHRML-0152,,Wilmington,Wilmington - Commuter Rail,,Commuter Rail,42.546624,-71.174334,CR-zone-3,,https://www.mbta.com/stops/place-NHRML-0152,,0,place-NHRML-0152,1,Wilmington,,,2,,,,,,,,,DOT_ADMIN,2023/12/11 19:40:12+00,DOT_ADMIN,2023/12/11 19:40:12+00
-71.1743340001433,42.5466239999303,663200,NHRML-0152-01,,Wilmington,Wilmington - Commuter Rail - Track 1 (Outbound),1,Track 1 (Outbound),42.546624,-71.174334,CR-zone-3,,https://www.mbta.com/stops/place-NHRML-0152,,0,place-NHRML-0152,1,Wilmington,,,2,,,,,,,,,DOT_ADMIN,2023/12/11 19:40:12+00,DOT_ADMIN,2023/12/11 19:40:12+00
-71.1743340001433,42.5466239999303,663201,NHRML-0152-02,,Wilmington,Wilmington - Commuter Rail - Track 2 (Boston),2,Track 2 (Boston),42.546624,-71.174334,CR-zone-3,,https://www.mbta.com/stops/place-NHRML-0152,,0,place-NHRML-0152,1,Wilmington,,,2,,,,,,,,,DOT_ADMIN,2023/12/11 19:40:12+00,DOT_ADMIN,2023/12/11 19:40:12+00
-71.2809950005363,42.5932480002519,663203,NHRML-0218,,North Billerica,North Billerica - Commuter Rail,,Commuter Rail,42.593248,-71.280995,CR-zone-5,,https://www.mbta.com/stops/place-NHRML-0218,,0,place-NHRML-0218,1,Billerica,,,2,,,,,,,,,DOT_ADMIN,2023/12/11 19:40:12+00,DOT_ADMIN,2023/12/11 19:40:12+00
-71.2809950005363,42.5932480002519,663204,NHRML-0218-01,,North Billerica,North Billerica - Commuter Rail - Track 1 (Outbound),1,Track 1 (Outbound),42.593248,-71.280995,CR-zone-5,,https://www.mbta.com/stops/place-NHRML-0218,,0,place-NHRML-0218,1,Billerica,,,2,,,,,,,,,DOT_ADMIN,2023/12/11 19:40:12+00,DOT_ADMIN,2023/12/11 19:40:12+00
-71.2809950005363,42.5932480002519,663205,NHRML-0218-02,,North Billerica,North Billerica - Commuter Rail - Track 2 (Boston),2,Track 2 (Boston),42.593248,-71.280995,CR-zone-5,,https://www.mbta.com/stops/place-NHRML-0218,,0,place-NHRML-0218,1,Billerica,,,2,,,,,,,,,DOT_ADMIN,2023/12/11 19:40:12+00,DOT_ADMIN,2023/12/11 19:40:12+00
-71.3145429994606,42.6353499997995,663207,NHRML-0254,,Lowell,Lowell - Commuter Rail,,Commuter Rail,42.63535,-71.314543,CR-zone-6,,https://www.mbta.com/stops/place-NHRML-0254,,0,place-NHRML-0254,1,Lowell,,,2,,,,,,,,,DOT_ADMIN,2023/12/11 19:40:12+00,DOT_ADMIN,2023/12/11 19:40:12+00
-71.3145429994606,42.6353499997995,663208,NHRML-0254-03,,Lowell,Lowell - Commuter Rail - Track 3,3,Track 3,42.63535,-71.314543,CR-zone-6,,https://www.mbta.com/stops/place-NHRML-0254,,0,place-NHRML-0254,1,Lowell,,,2,,,,,,,,,DOT_ADMIN,2023/12/11 19:40:12+00,DOT_ADMIN,2023/12/11 19:40:12+00
-71.3145429994606,42.6353499997995,663209,NHRML-0254-04,,Lowell,Lowell - Commuter Rail - Track 4,4,Track 4,42.63535,-71.314543,CR-zone-6,,https://www.mbta.com/stops/place-NHRML-0254,,0,place-NHRML-0254,1,Lowell,,,2,,,,,,,,,DOT_ADMIN,2023/12/11 19:40:12+00,DOT_ADMIN,2023/12/11 19:40:12+00
-70.9533019994672,42.1550250002971,663211,PB-0158-S,,South Weymouth,South Weymouth - Commuter Rail - Track 1 (All Trains),1,Track 1 (All Trains),42.155025,-70.953302,CR-zone-3,,https://www.mbta.com/stops/place-PB-0158,,0,place-PB-0158,1,Weymouth,,,2,,,,,,,,,DOT_ADMIN,2023/12/11 19:40:12+00,DOT_ADMIN,2023/12/11 19:40:12+00
-70.9344050005647,42.1071559996957,663213,PB-0194-S,,Abington,Abington - Commuter Rail - Track 1 (All Trains),1,Track 1 (All Trains),42.107156,-70.934405,CR-zone-4,,https://www.mbta.com/stops/place-PB-0194,,0,place-PB-0194,1,Abington,,,2,,,,,,,,,DOT_ADMIN,2023/12/11 19:40:12+00,DOT_ADMIN,2023/12/11 19:40:12+00
-70.9234109994728,42.0827489999301,663215,PB-0212-S,,Whitman,Whitman - Commuter Rail - Track 1 (All Trains),1,Track 1 (All Trains),42.082749,-70.923411,CR-zone-5,,https://www.mbta.com/stops/place-PB-0212,,0,place-PB-0212,1,Whitman,,,2,,,,,,,,,DOT_ADMIN,2023/12/11 19:40:12+00,DOT_ADMIN,2023/12/11 19:40:12+00
-70.8824380003576,42.0439670002302,663217,PB-0245-S,,Hanson,Hanson - Commuter Rail - Track 1 (All Trains),1,Track 1 (All Trains),42.043967,-70.882438,CR-zone-6,,https://www.mbta.com/stops/place-PB-0245,,0,place-PB-0245,1,Hanson,,,2,,,,,,,,,DOT_ADMIN,2023/12/11 19:40:12+00,DOT_ADMIN,2023/12/11 19:40:12+00
-70.824262999761,42.0147389997868,663219,PB-0281,,Halifax,Halifax - Commuter Rail,,Commuter Rail,42.014739,-70.824263,CR-zone-7,,https://www.mbta.com/stops/place-PB-0281,,0,place-PB-0281,1,Halifax,,,2,,,,,,,,,DOT_ADMIN,2023/12/11 19:40:12+00,DOT_ADMIN,2023/12/11 19:40:12+00
-70.824262999761,42.0147389997868,663220,PB-0281-CS,,Halifax,Halifax - Commuter Rail - Track 2,2,Track 2,42.014739,-70.824263,CR-zone-7,,https://www.mbta.com/stops/place-PB-0281,,0,place-PB-0281,1,Halifax,,,2,,,,,,,,,DOT_ADMIN,2023/12/11 19:40:12+00,DOT_ADMIN,2023/12/11 19:40:12+00
-70.824262999761,42.0147389997868,663221,PB-0281-S,,Halifax,Halifax - Commuter Rail - Track 1 (All Trains),1,Track 1 (All Trains),42.014739,-70.824263,CR-zone-7,,https://www.mbta.com/stops/place-PB-0281,,0,place-PB-0281,1,Halifax,,,2,,,,,,,,,DOT_ADMIN,2023/12/11 19:40:12+00,DOT_ADMIN,2023/12/11 19:40:12+00
-70.6904209995439,41.9812780000145,663223,PB-0356-S,,Plymouth,Plymouth - Commuter Rail - Track 1 (All Trains),1,Track 1 (All Trains),41.981278,-70.690421,CR-zone-8,,https://www.mbta.com/stops/place-PB-0356,,0,place-PB-0356,1,Plymouth,,,2,,,,,,,,,DOT_ADMIN,2023/12/11 19:40:12+00,DOT_ADMIN,2023/12/11 19:40:12+00
-71.1462799996795,42.1570950002228,663225,SB-0156-S,,Canton Center,Canton Center - Commuter Rail - Track 1 (All Trains),1,Track 1 (All Trains),42.157095,-71.14628,CR-zone-3,,https://www.mbta.com/stops/place-SB-0156,,0,place-SB-0156,1,Canton,,,2,,,,,,,,,DOT_ADMIN,2023/12/11 19:40:12+00,DOT_ADMIN,2023/12/11 19:40:12+00
-71.1036270003933,42.1240840004233,663227,SB-0189-S,,Stoughton,Stoughton - Commuter Rail - Track 1 (All Trains),1,Track 1 (All Trains),42.124084,-71.103627,CR-zone-4,,https://www.mbta.com/stops/place-SB-0189,,0,place-SB-0189,1,Stoughton,,,2,,,,,,,,,DOT_ADMIN,2023/12/11 19:40:12+00,DOT_ADMIN,2023/12/11 19:40:12+00
-71.0999740002038,42.3475809997159,663229,WML-0025,,Lansdowne,Lansdowne - Commuter Rail,,Commuter Rail,42.347581,-71.099974,CR-zone-1A,,https://www.mbta.com/stops/place-WML-0025,,0,place-WML-0025,1,Boston,,,2,,,,,,,,,DOT_ADMIN,2023/12/11 19:40:12+00,DOT_ADMIN,2023/12/11 19:40:12+00
-71.0999740002038,42.3475809997159,663230,WML-0025-05,,Lansdowne,Lansdowne - Commuter Rail - Track 5,5,Track 5,42.347581,-71.099974,CR-zone-1A,,https://www.mbta.com/stops/place-WML-0025,,0,place-WML-0025,1,Boston,,,2,,,,,,,,,DOT_ADMIN,2023/12/11 19:40:12+00,DOT_ADMIN,2023/12/11 19:40:12+00
-71.0999740002038,42.3475809997159,663231,WML-0025-07,,Lansdowne,Lansdowne - Commuter Rail - Track 7,7,Track 7,42.347581,-71.099974,CR-zone-1A,,https://www.mbta.com/stops/place-WML-0025,,0,place-WML-0025,1,Boston,,,2,,,,,,,,,DOT_ADMIN,2023/12/11 19:40:12+00,DOT_ADMIN,2023/12/11 19:40:12+00
-71.1398829999459,42.3572929995959,663233,WML-0035,,Boston Landing,Boston Landing - Commuter Rail,,Commuter Rail,42.357293,-71.139883,CR-zone-1A,,https://www.mbta.com/stops/place-WML-0035,,0,place-WML-0035,1,Boston,,,2,,,,,,,,,DOT_ADMIN,2023/12/11 19:40:12+00,DOT_ADMIN,2023/12/11 19:40:12+00
-71.1398829999459,42.3572929995959,663234,WML-0035-01,,Boston Landing,Boston Landing - Commuter Rail - Track 1 (Outbound),1,Track 1 (Outbound),42.357293,-71.139883,CR-zone-1A,,https://www.mbta.com/stops/place-WML-0035,,0,place-WML-0035,1,Boston,,,2,,,,,,,,,DOT_ADMIN,2023/12/11 19:40:12+00,DOT_ADMIN,2023/12/11 19:40:12+00
-71.1398829999459,42.3572929995959,663235,WML-0035-02,,Boston Landing,Boston Landing - Commuter Rail - Track 2 (South Station),2,Track 2 (South Station),42.357293,-71.139883,CR-zone-1A,,https://www.mbta.com/stops/place-WML-0035,,0,place-WML-0035,1,Boston,,,2,,,,,,,,,DOT_ADMIN,2023/12/11 19:40:12+00,DOT_ADMIN,2023/12/11 19:40:12+00
-71.2054080001536,42.3517020000596,663237,WML-0081-02,,Newtonville,Newtonville - Commuter Rail - Track 2 (All Trains),2,Commuter Rail - Track 2 (All Trains),42.351702,-71.205408,CR-zone-1,,https://www.mbta.com/stops/place-WML-0081,,0,place-WML-0081,2,Newton,,,2,,,,,,,,,DOT_ADMIN,2023/12/11 19:40:12+00,DOT_ADMIN,2023/12/11 19:40:12+00
-71.2305280005176,42.3478780002008,663241,WML-0091-02,,West Newton,West Newton - Commuter Rail - Track 2 (All Trains),2,Commuter Rail - Track 2 (All Trains),42.347878,-71.230528,CR-zone-2,,https://www.mbta.com/stops/place-WML-0091,,0,place-WML-0091,2,Newton,,,2,,,,,,,,,DOT_ADMIN,2023/12/11 19:40:12+00,DOT_ADMIN,2023/12/11 19:40:12+00
-71.2503730005426,42.3458329997064,663245,WML-0102-02,,Auburndale,Auburndale - Commuter Rail - Track 2 (All Trains),2,Commuter Rail - Track 2 (All Trains),42.345833,-71.250373,CR-zone-2,,https://www.mbta.com/stops/place-WML-0102,,0,place-WML-0102,2,Newton,,,2,,,,,,,,,DOT_ADMIN,2023/12/11 19:40:12+00,DOT_ADMIN,2023/12/11 19:40:12+00
-71.2722879994569,42.3236079997317,663249,WML-0125,,Wellesley Farms,Wellesley Farms - Commuter Rail,,Commuter Rail,42.323608,-71.272288,CR-zone-3,,https://www.mbta.com/stops/place-WML-0125,,0,place-WML-0125,2,Wellesley,,,2,,,,,,,,,DOT_ADMIN,2023/12/11 19:40:12+00,DOT_ADMIN,2023/12/11 19:40:12+00
-71.2722879994569,42.3236079997317,663250,WML-0125-01,,Wellesley Farms,Wellesley Farms - Commuter Rail - Track 1,1,Track 1,42.323608,-71.272288,CR-zone-3,,https://www.mbta.com/stops/place-WML-0125,,0,place-WML-0125,2,Wellesley,,,2,,,,,,,,,DOT_ADMIN,2023/12/11 19:40:12+00,DOT_ADMIN,2023/12/11 19:40:12+00
-71.2722879994569,42.3236079997317,663251,WML-0125-02,,Wellesley Farms,Wellesley Farms - Commuter Rail - Track 2,2,Track 2,42.323608,-71.272288,CR-zone-3,,https://www.mbta.com/stops/place-WML-0125,,0,place-WML-0125,2,Wellesley,,,2,,,,,,,,,DOT_ADMIN,2023/12/11 19:40:12+00,DOT_ADMIN,2023/12/11 19:40:12+00
-71.2770440002532,42.3103700004512,663253,WML-0135,,Wellesley Hills,Wellesley Hills - Commuter Rail,,Commuter Rail,42.31037,-71.277044,CR-zone-3,,https://www.mbta.com/stops/place-WML-0135,,0,place-WML-0135,2,Wellesley,,,2,,,,,,,,,DOT_ADMIN,2023/12/11 19:40:12+00,DOT_ADMIN,2023/12/11 19:40:12+00
-71.2770440002532,42.3103700004512,663254,WML-0135-01,,Wellesley Hills,Wellesley Hills - Commuter Rail - Track 1,1,Track 1,42.31037,-71.277044,CR-zone-3,,https://www.mbta.com/stops/place-WML-0135,,0,place-WML-0135,2,Wellesley,,,2,,,,,,,,,DOT_ADMIN,2023/12/11 19:40:12+00,DOT_ADMIN,2023/12/11 19:40:12+00
-71.2770440002532,42.3103700004512,663255,WML-0135-02,,Wellesley Hills,Wellesley Hills - Commuter Rail - Track 2,2,Track 2,42.31037,-71.277044,CR-zone-3,,https://www.mbta.com/stops/place-WML-0135,,0,place-WML-0135,2,Wellesley,,,2,,,,,,,,,DOT_ADMIN,2023/12/11 19:40:12+00,DOT_ADMIN,2023/12/11 19:40:12+00
-71.2941730002701,42.2975260003709,663257,WML-0147,,Wellesley Square,Wellesley Square - Commuter Rail,,Commuter Rail,42.297526,-71.294173,CR-zone-3,,https://www.mbta.com/stops/place-WML-0147,,0,place-WML-0147,2,Wellesley,,,2,,,,,,,,,DOT_ADMIN,2023/12/11 19:40:12+00,DOT_ADMIN,2023/12/11 19:40:12+00
-71.2941730002701,42.2975260003709,663258,WML-0147-01,,Wellesley Square,Wellesley Square - Commuter Rail - Track 1,1,Track 1,42.297526,-71.294173,CR-zone-3,,https://www.mbta.com/stops/place-WML-0147,,0,place-WML-0147,2,Wellesley,,,2,,,,,,,,,DOT_ADMIN,2023/12/11 19:40:12+00,DOT_ADMIN,2023/12/11 19:40:12+00
-71.2941730002701,42.2975260003709,663259,WML-0147-02,,Wellesley Square,Wellesley Square - Commuter Rail - Track 2,2,Track 2,42.297526,-71.294173,CR-zone-3,,https://www.mbta.com/stops/place-WML-0147,,0,place-WML-0147,2,Wellesley,,,2,,,,,,,,,DOT_ADMIN,2023/12/11 19:40:12+00,DOT_ADMIN,2023/12/11 19:40:12+00
-71.3471329999557,42.2857190003918,663261,WML-0177,,Natick Center,Natick Center - Commuter Rail,,Commuter Rail,42.285719,-71.347133,CR-zone-4,,https://www.mbta.com/stops/place-WML-0177,,0,place-WML-0177,2,Natick,,,2,,,,,,,,,DOT_ADMIN,2023/12/11 19:40:12+00,DOT_ADMIN,2023/12/11 19:40:12+00
-71.3471329999557,42.2857190003918,663262,WML-0177-01,,Natick Center,Natick Center - Commuter Rail - Track 1,1,Track 1,42.285719,-71.347133,CR-zone-4,,https://www.mbta.com/stops/place-WML-0177,,0,place-WML-0177,2,Natick,,,2,,,,,,,,,DOT_ADMIN,2023/12/11 19:40:12+00,DOT_ADMIN,2023/12/11 19:40:12+00
-71.3471329999557,42.2857190003918,663263,WML-0177-02,,Natick Center,Natick Center - Commuter Rail - Track 2,2,Track 2,42.285719,-71.347133,CR-zone-4,,https://www.mbta.com/stops/place-WML-0177,,0,place-WML-0177,2,Natick,,,2,,,,,,,,,DOT_ADMIN,2023/12/11 19:40:12+00,DOT_ADMIN,2023/12/11 19:40:12+00
-71.3917970005396,42.2830639999152,663265,WML-0199,,West Natick,West Natick - Commuter Rail,,Commuter Rail,42.283064,-71.391797,CR-zone-4,,https://www.mbta.com/stops/place-WML-0199,,0,place-WML-0199,1,Natick,,,2,,,,,,,,,DOT_ADMIN,2023/12/11 19:40:12+00,DOT_ADMIN,2023/12/11 19:40:12+00
-71.3917970005396,42.2830639999152,663266,WML-0199-01,,West Natick,West Natick - Commuter Rail - Track 1,1,Track 1,42.283064,-71.391797,CR-zone-4,,https://www.mbta.com/stops/place-WML-0199,,0,place-WML-0199,1,Natick,,,2,,,,,,,,,DOT_ADMIN,2023/12/11 19:40:12+00,DOT_ADMIN,2023/12/11 19:40:12+00
-71.3917970005396,42.2830639999152,663267,WML-0199-02,,West Natick,West Natick - Commuter Rail - Track 2,2,Track 2,42.283064,-71.391797,CR-zone-4,,https://www.mbta.com/stops/place-WML-0199,,0,place-WML-0199,1,Natick,,,2,,,,,,,,,DOT_ADMIN,2023/12/11 19:40:12+00,DOT_ADMIN,2023/12/11 19:40:12+00
-71.4200549999298,42.276107999782,663269,WML-0214,,Framingham,Framingham - Commuter Rail,,Commuter Rail,42.276108,-71.420055,CR-zone-5,,https://www.mbta.com/stops/place-WML-0214,,0,place-WML-0214,1,Framingham,,,2,,,,,,,,,DOT_ADMIN,2023/12/11 19:40:12+00,DOT_ADMIN,2023/12/11 19:40:12+00
-71.4200549999298,42.276107999782,663270,WML-0214-01,,Framingham,Framingham - Commuter Rail - Track 1,1,Track 1,42.276108,-71.420055,CR-zone-5,,https://www.mbta.com/stops/place-WML-0214,,0,place-WML-0214,1,Framingham,,,2,,,,,,,,,DOT_ADMIN,2023/12/11 19:40:12+00,DOT_ADMIN,2023/12/11 19:40:12+00
-71.4200549999298,42.276107999782,663271,WML-0214-02,,Framingham,Framingham - Commuter Rail - Track 2,2,Track 2,42.276108,-71.420055,CR-zone-5,,https://www.mbta.com/stops/place-WML-0214,,0,place-WML-0214,1,Framingham,,,2,,,,,,,,,DOT_ADMIN,2023/12/11 19:40:12+00,DOT_ADMIN,2023/12/11 19:40:12+00
-71.4821609999067,42.2614899998601,663274,WML-0252,,Ashland,Ashland - Commuter Rail,,Commuter Rail,42.26149,-71.482161,CR-zone-6,,https://www.mbta.com/stops/place-WML-0252,,0,place-WML-0252,1,Ashland,,,2,,,,,,,,,DOT_ADMIN,2023/12/11 19:40:12+00,DOT_ADMIN,2023/12/11 19:40:12+00
-71.4821609999067,42.2614899998601,663275,WML-0252-01,,Ashland,Ashland - Commuter Rail - Track 1 (Outbound),1,Track 1 (Outbound),42.26149,-71.482161,CR-zone-6,,https://www.mbta.com/stops/place-WML-0252,,0,place-WML-0252,1,Ashland,,,2,,,,,,,,,DOT_ADMIN,2023/12/11 19:40:12+00,DOT_ADMIN,2023/12/11 19:40:12+00
-71.4821609999067,42.2614899998601,663276,WML-0252-02,,Ashland,Ashland - Commuter Rail - Track 2 (Boston),2,Track 2 (Boston),42.26149,-71.482161,CR-zone-6,,https://www.mbta.com/stops/place-WML-0252,,0,place-WML-0252,1,Ashland,,,2,,,,,,,,,DOT_ADMIN,2023/12/11 19:40:12+00,DOT_ADMIN,2023/12/11 19:40:12+00
-71.5243710000977,42.2670240000335,663279,WML-0274,,Southborough,Southborough - Commuter Rail,,Commuter Rail,42.267024,-71.524371,CR-zone-6,,https://www.mbta.com/stops/place-WML-0274,,0,place-WML-0274,1,Southborough,,,2,,,,,,,,,DOT_ADMIN,2023/12/11 19:40:12+00,DOT_ADMIN,2023/12/11 19:40:12+00
-71.5243710000977,42.2670240000335,663280,WML-0274-01,,Southborough,Southborough - Commuter Rail - Track 1 (Outbound),1,Track 1 (Outbound),42.267024,-71.524371,CR-zone-6,,https://www.mbta.com/stops/place-WML-0274,,0,place-WML-0274,1,Southborough,,,2,,,,,,,,,DOT_ADMIN,2023/12/11 19:40:12+00,DOT_ADMIN,2023/12/11 19:40:12+00
-71.5243710000977,42.2670240000335,663281,WML-0274-02,,Southborough,Southborough - Commuter Rail - Track 2 (Boston),2,Track 2 (Boston),42.267024,-71.524371,CR-zone-6,,https://www.mbta.com/stops/place-WML-0274,,0,place-WML-0274,1,Southborough,,,2,,,,,,,,,DOT_ADMIN,2023/12/11 19:40:12+00,DOT_ADMIN,2023/12/11 19:40:12+00
-71.6470759997843,42.2696440001877,663283,WML-0340,,Westborough,Westborough - Commuter Rail,,Commuter Rail,42.269644,-71.647076,CR-zone-7,,https://www.mbta.com/stops/place-WML-0340,,0,place-WML-0340,1,Westborough,,,2,,,,,,,,,DOT_ADMIN,2023/12/11 19:40:12+00,DOT_ADMIN,2023/12/11 19:40:12+00
-71.6470759997843,42.2696440001877,663284,WML-0340-01,,Westborough,Westborough - Commuter Rail - Track 1 (Outbound),1,Track 1 (Outbound),42.269644,-71.647076,CR-zone-7,,https://www.mbta.com/stops/place-WML-0340,,0,place-WML-0340,1,Westborough,,,2,,,,,,,,,DOT_ADMIN,2023/12/11 19:40:12+00,DOT_ADMIN,2023/12/11 19:40:12+00
-71.6470759997843,42.2696440001877,663285,WML-0340-02,,Westborough,Westborough - Commuter Rail - Track 2 (Boston),2,Track 2 (Boston),42.269644,-71.647076,CR-zone-7,,https://www.mbta.com/stops/place-WML-0340,,0,place-WML-0340,1,Westborough,,,2,,,,,,,,,DOT_ADMIN,2023/12/11 19:40:12+00,DOT_ADMIN,2023/12/11 19:40:12+00
-71.6853249997494,42.246600000356,663287,WML-0364,,Grafton,Grafton - Commuter Rail,,Commuter Rail,42.2466,-71.685325,CR-zone-8,,https://www.mbta.com/stops/place-WML-0364,,0,place-WML-0364,1,Grafton,,,2,,,,,,,,,DOT_ADMIN,2023/12/11 19:40:12+00,DOT_ADMIN,2023/12/11 19:40:12+00
-71.6853249997494,42.246600000356,663288,WML-0364-01,,Grafton,Grafton - Commuter Rail - Track 1 (Outbound),1,Track 1 (Outbound),42.2466,-71.685325,CR-zone-8,,https://www.mbta.com/stops/place-WML-0364,,0,place-WML-0364,1,Grafton,,,2,,,,,,,,,DOT_ADMIN,2023/12/11 19:40:12+00,DOT_ADMIN,2023/12/11 19:40:12+00
-71.6853249997494,42.246600000356,663289,WML-0364-02,,Grafton,Grafton - Commuter Rail - Track 2 (Boston),2,Track 2 (Boston),42.2466,-71.685325,CR-zone-8,,https://www.mbta.com/stops/place-WML-0364,,0,place-WML-0364,1,Grafton,,,2,,,,,,,,,DOT_ADMIN,2023/12/11 19:40:12+00,DOT_ADMIN,2023/12/11 19:40:12+00
-71.791806000477,42.261835000326,663291,WML-0442-CS,,Worcester,Worcester - Commuter Rail - Track 1 (All Trains),1,Track 1 (All Trains),42.261835,-71.791806,CR-zone-8,,https://www.mbta.com/stops/place-WML-0442,,0,place-WML-0442,1,Worcester,,,2,,,,,,,,,DOT_ADMIN,2023/12/11 19:40:12+00,DOT_ADMIN,2023/12/11 19:40:12+00
-71.0693790001403,42.4517309995912,663293,WR-0062,,Wyoming Hill,Wyoming Hill - Commuter Rail,,Commuter Rail,42.451731,-71.069379,CR-zone-1,,https://www.mbta.com/stops/place-WR-0062,,0,place-WR-0062,2,Melrose,,,2,,,,,,,,,DOT_ADMIN,2023/12/11 19:40:12+00,DOT_ADMIN,2023/12/11 19:40:12+00
-71.0693790001403,42.4517309995912,663294,WR-0062-01,,Wyoming Hill,Wyoming Hill - Commuter Rail - Track 1 (Outbound),1,Track 1 (Outbound),42.451731,-71.069379,CR-zone-1,,https://www.mbta.com/stops/place-WR-0062,,0,place-WR-0062,2,Melrose,,,2,,,,,,,,,DOT_ADMIN,2023/12/11 19:40:12+00,DOT_ADMIN,2023/12/11 19:40:12+00
-71.0693790001403,42.4517309995912,663295,WR-0062-02,,Wyoming Hill,Wyoming Hill - Commuter Rail - Track 2 (Boston),2,Track 2 (Boston),42.451731,-71.069379,CR-zone-1,,https://www.mbta.com/stops/place-WR-0062,,0,place-WR-0062,2,Melrose,,,2,,,,,,,,,DOT_ADMIN,2023/12/11 19:40:12+00,DOT_ADMIN,2023/12/11 19:40:12+00
-71.0697890005555,42.4587679998754,663297,WR-0067,,Melrose/Cedar Park,Melrose/Cedar Park - Commuter Rail,,Commuter Rail,42.458768,-71.069789,CR-zone-1,,https://www.mbta.com/stops/place-WR-0067,,0,place-WR-0067,2,Melrose,,,2,,,,,,,,,DOT_ADMIN,2023/12/11 19:40:12+00,DOT_ADMIN,2023/12/11 19:40:12+00
-71.0697890005555,42.4587679998754,663298,WR-0067-01,,Melrose/Cedar Park,Melrose/Cedar Park - Commuter Rail - Track 1 (Outbound),1,Track 1 (Outbound),42.458768,-71.069789,CR-zone-1,,https://www.mbta.com/stops/place-WR-0067,,0,place-WR-0067,2,Melrose,,,2,,,,,,,,,DOT_ADMIN,2023/12/11 19:40:12+00,DOT_ADMIN,2023/12/11 19:40:12+00
-71.0697890005555,42.4587679998754,663299,WR-0067-02,,Melrose/Cedar Park,Melrose/Cedar Park - Commuter Rail - Track 2 (Boston),2,Track 2 (Boston),42.458768,-71.069789,CR-zone-1,,https://www.mbta.com/stops/place-WR-0067,,0,place-WR-0067,2,Melrose,,,2,,,,,,,,,DOT_ADMIN,2023/12/11 19:40:12+00,DOT_ADMIN,2023/12/11 19:40:12+00
-71.0682970000472,42.4694639997039,663301,WR-0075,,Melrose Highlands,Melrose Highlands - Commuter Rail,,Commuter Rail,42.469464,-71.068297,CR-zone-1,,https://www.mbta.com/stops/place-WR-0075,,0,place-WR-0075,1,Melrose,,,2,,,,,,,,,DOT_ADMIN,2023/12/11 19:40:12+00,DOT_ADMIN,2023/12/11 19:40:12+00
-71.0682970000472,42.4694639997039,663302,WR-0075-01,,Melrose Highlands,Melrose Highlands - Commuter Rail - Track 1 (Outbound),1,Track 1 (Outbound),42.469464,-71.068297,CR-zone-1,,https://www.mbta.com/stops/place-WR-0075,,0,place-WR-0075,1,Melrose,,,2,,,,,,,,,DOT_ADMIN,2023/12/11 19:40:12+00,DOT_ADMIN,2023/12/11 19:40:12+00
-71.0682970000472,42.4694639997039,663303,WR-0075-02,,Melrose Highlands,Melrose Highlands - Commuter Rail - Track 2 (Boston),2,Track 2 (Boston),42.469464,-71.068297,CR-zone-1,,https://www.mbta.com/stops/place-WR-0075,,0,place-WR-0075,1,Melrose,,,2,,,,,,,,,DOT_ADMIN,2023/12/11 19:40:12+00,DOT_ADMIN,2023/12/11 19:40:12+00
-71.067247000226,42.4830050004053,663305,WR-0085,,Greenwood,Greenwood - Commuter Rail,,Commuter Rail,42.483005,-71.067247,CR-zone-2,,https://www.mbta.com/stops/place-WR-0085,,0,place-WR-0085,2,Wakefield,,,2,,,,,,,,,DOT_ADMIN,2023/12/11 19:40:12+00,DOT_ADMIN,2023/12/11 19:40:12+00
-71.067247000226,42.4830050004053,663306,WR-0085-01,,Greenwood,Greenwood - Commuter Rail - Track 1 (Outbound),1,Track 1 (Outbound),42.483005,-71.067247,CR-zone-2,,https://www.mbta.com/stops/place-WR-0085,,0,place-WR-0085,2,Wakefield,,,2,,,,,,,,,DOT_ADMIN,2023/12/11 19:40:12+00,DOT_ADMIN,2023/12/11 19:40:12+00
-71.067247000226,42.4830050004053,663307,WR-0085-02,,Greenwood,Greenwood - Commuter Rail - Track 2 (Boston),2,Track 2 (Boston),42.483005,-71.067247,CR-zone-2,,https://www.mbta.com/stops/place-WR-0085,,0,place-WR-0085,2,Wakefield,,,2,,,,,,,,,DOT_ADMIN,2023/12/11 19:40:12+00,DOT_ADMIN,2023/12/11 19:40:12+00
-71.0755660005573,42.5021260002766,663309,WR-0099,,Wakefield,Wakefield - Commuter Rail,,Commuter Rail,42.502126,-71.075566,CR-zone-2,,https://www.mbta.com/stops/place-WR-0099,,0,place-WR-0099,2,Wakefield,,,2,,,,,,,,,DOT_ADMIN,2023/12/11 19:40:12+00,DOT_ADMIN,2023/12/11 19:40:12+00
-71.0755660005573,42.5021260002766,663310,WR-0099-01,,Wakefield,Wakefield - Commuter Rail - Track 1 (Outbound),1,Track 1 (Outbound),42.502126,-71.075566,CR-zone-2,,https://www.mbta.com/stops/place-WR-0099,,0,place-WR-0099,2,Wakefield,,,2,,,,,,,,,DOT_ADMIN,2023/12/11 19:40:12+00,DOT_ADMIN,2023/12/11 19:40:12+00
-71.0755660005573,42.5021260002766,663311,WR-0099-02,,Wakefield,Wakefield - Commuter Rail - Track 2 (Boston),2,Track 2 (Boston),42.502126,-71.075566,CR-zone-2,,https://www.mbta.com/stops/place-WR-0099,,0,place-WR-0099,2,Wakefield,,,2,,,,,,,,,DOT_ADMIN,2023/12/11 19:40:12+00,DOT_ADMIN,2023/12/11 19:40:12+00
-71.1082940004554,42.5222100001754,663313,WR-0120-S,,Reading,Reading - Commuter Rail - Track 1 (All Trains),1,Track 1 (All Trains),42.52221,-71.108294,CR-zone-2,,https://www.mbta.com/stops/place-WR-0120,,0,place-WR-0120,1,Reading,,,2,,,,,,,,,DOT_ADMIN,2023/12/11 19:40:12+00,DOT_ADMIN,2023/12/11 19:40:12+00
-71.1596959999892,42.5696610001824,663315,WR-0163-S,,North Wilmington,North Wilmington - Commuter Rail - Track 1 (All Trains),1,Track 1 (All Trains),42.569661,-71.159696,CR-zone-3,,https://www.mbta.com/stops/place-WR-0163,,0,place-WR-0163,2,Wilmington,,,2,,,,,,,,,DOT_ADMIN,2023/12/11 19:40:12+00,DOT_ADMIN,2023/12/11 19:40:12+00
-71.1599619997403,42.6273560003681,663317,WR-0205-02,,Ballardvale,Ballardvale - Commuter Rail - Track 2 (All Trains),2,Track 2 (All Trains),42.627356,-71.159962,CR-zone-4,,https://www.mbta.com/stops/place-WR-0205,,0,place-WR-0205,1,Andover,,,2,,,,,,,,,DOT_ADMIN,2023/12/11 19:40:12+00,DOT_ADMIN,2023/12/11 19:40:12+00
-71.1445019998679,42.6583360002015,663319,WR-0228-02,,Andover,Andover - Commuter Rail - Track 2 (All Trains),2,Track 2 (All Trains),42.658336,-71.144502,CR-zone-5,,https://www.mbta.com/stops/place-WR-0228,,0,place-WR-0228,1,Andover,,,2,,,,,,,,,DOT_ADMIN,2023/12/11 19:40:12+00,DOT_ADMIN,2023/12/11 19:40:12+00
-71.1519800004734,42.7018060002262,663321,WR-0264-02,,Lawrence,Lawrence - Commuter Rail - Track 2 (All Trains),2,Track 2 (All Trains),42.701806,-71.15198,CR-zone-6,,https://www.mbta.com/stops/place-WR-0264,,0,place-WR-0264,1,Lawrence,,,2,,,,,,,,,DOT_ADMIN,2023/12/11 19:40:12+00,DOT_ADMIN,2023/12/11 19:40:12+00
-71.0884110005978,42.7669120001918,663323,WR-0325,,Bradford,Bradford - Commuter Rail,,Commuter Rail,42.766912,-71.088411,CR-zone-7,,https://www.mbta.com/stops/place-WR-0325,,0,place-WR-0325,1,Haverhill,,,2,,,,,,,,,DOT_ADMIN,2023/12/11 19:40:12+00,DOT_ADMIN,2023/12/11 19:40:12+00
-71.0884110005978,42.7669120001918,663324,WR-0325-01,,Bradford,Bradford - Commuter Rail - Track 1 (Outbound),1,Track 1 (Outbound),42.766912,-71.088411,CR-zone-7,,https://www.mbta.com/stops/place-WR-0325,,0,place-WR-0325,1,Haverhill,,,2,,,,,,,,,DOT_ADMIN,2023/12/11 19:40:12+00,DOT_ADMIN,2023/12/11 19:40:12+00
-71.0884110005978,42.7669120001918,663325,WR-0325-02,,Bradford,Bradford - Commuter Rail - Track 2 (Boston),2,Track 2 (Boston),42.766912,-71.088411,CR-zone-7,,https://www.mbta.com/stops/place-WR-0325,,0,place-WR-0325,1,Haverhill,,,2,,,,,,,,,DOT_ADMIN,2023/12/11 19:40:12+00,DOT_ADMIN,2023/12/11 19:40:12+00
-71.0862370005479,42.7734740001896,663327,WR-0329,,Haverhill,Haverhill - Commuter Rail,,Commuter Rail,42.773474,-71.086237,CR-zone-7,,https://www.mbta.com/stops/place-WR-0329,,0,place-WR-0329,1,Haverhill,,,2,,,,,,,,,DOT_ADMIN,2023/12/11 19:40:12+00,DOT_ADMIN,2023/12/11 19:40:12+00
-71.0862370005479,42.7734740001896,663328,WR-0329-01,,Haverhill,Haverhill - Commuter Rail - Track 1,1,Track 1,42.773474,-71.086237,CR-zone-7,,https://www.mbta.com/stops/place-WR-0329,,0,place-WR-0329,1,Haverhill,,,2,,,,,,,,,DOT_ADMIN,2023/12/11 19:40:12+00,DOT_ADMIN,2023/12/11 19:40:12+00
-71.0862370005479,42.7734740001896,663329,WR-0329-02,,Haverhill,Haverhill - Commuter Rail - Track 2 (Boston),2,Track 2 (Boston),42.773474,-71.086237,CR-zone-7,,https://www.mbta.com/stops/place-WR-0329,,0,place-WR-0329,1,Haverhill,,,2,,,,,,,,,DOT_ADMIN,2023/12/11 19:40:12+00,DOT_ADMIN,2023/12/11 19:40:12+00
-71.0757269996549,42.3473500003116,663412,NEC-2276,,Back Bay,Back Bay - Commuter Rail,,Commuter Rail,42.34735,-71.075727,CR-zone-1A,,https://www.mbta.com/stops/place-bbsta,level_ground,0,place-bbsta,1,Boston,,,2,,,,,,,,,DOT_ADMIN,2023/12/11 19:40:12+00,DOT_ADMIN,2023/12/11 19:40:12+00
-71.0753120004782,42.3472829999621,663413,NEC-2276-01,,Back Bay,Back Bay - Commuter Rail - Track 1,1,Commuter Rail - Track 1,42.347283,-71.075312,CR-zone-1A,,https://www.mbta.com/stops/place-bbsta,level_-1_cr_platform,0,place-bbsta,1,Boston,,,2,,,,,,,,,DOT_ADMIN,2023/12/11 19:40:12+00,DOT_ADMIN,2023/12/11 19:40:12+00
-71.0752989998947,42.3471959999305,663414,NEC-2276-02,,Back Bay,Back Bay - Commuter Rail - Track 2,2,Commuter Rail - Track 2,42.347196,-71.075299,CR-zone-1A,,https://www.mbta.com/stops/place-bbsta,level_-1_cr_platform,0,place-bbsta,1,Boston,,,2,,,,,,,,,DOT_ADMIN,2023/12/11 19:40:12+00,DOT_ADMIN,2023/12/11 19:40:12+00
-71.0753120004782,42.3472829999621,663415,NEC-2276-03,,Back Bay,Back Bay - Commuter Rail - Track 3,3,Commuter Rail - Track 3,42.347283,-71.075312,CR-zone-1A,,https://www.mbta.com/stops/place-bbsta,level_-1_cr_platform,0,place-bbsta,1,Boston,,,2,,,,,,,,,DOT_ADMIN,2023/12/11 19:40:12+00,DOT_ADMIN,2023/12/11 19:40:12+00
-71.0753929998556,42.3475899998009,663416,WML-0012-05,,Back Bay,Back Bay - Commuter Rail - Track 5,5,Commuter Rail - Track 5,42.34759,-71.075393,CR-zone-1A,,https://www.mbta.com/stops/place-bbsta,level_-1_cr_platform,0,place-bbsta,1,Boston,,,2,,,,,,,,,DOT_ADMIN,2023/12/11 19:40:12+00,DOT_ADMIN,2023/12/11 19:40:12+00
-71.0753929998556,42.3475899998009,663417,WML-0012-07,,Back Bay,Back Bay - Commuter Rail - Track 7,7,Commuter Rail - Track 7,42.34759,-71.075393,CR-zone-1A,,https://www.mbta.com/stops/place-bbsta,level_-1_cr_platform,0,place-bbsta,1,Boston,,,2,,,,,,,,,DOT_ADMIN,2023/12/11 19:40:12+00,DOT_ADMIN,2023/12/11 19:40:12+00
-71.0010530003968,42.2099589997823,663490,MM-0109,,Braintree,Braintree - Commuter Rail,,Commuter Rail,42.209959,-71.001053,CR-zone-2,,https://www.mbta.com/stops/place-brntn,level_1_cr_platform,0,place-brntn,1,Braintree,,,2,,,,,,,,,DOT_ADMIN,2023/12/11 19:40:12+00,DOT_ADMIN,2023/12/11 19:40:12+00
-71.001031000605,42.2099610000554,663491,MM-0109-CS,,Braintree,Braintree - Commuter Rail - Track 2,2,Commuter Rail - Track 2,42.209961,-71.001031,CR-zone-2,,https://www.mbta.com/stops/place-brntn,level_1_cr_platform,0,place-brntn,1,Braintree,,,2,,,,,,,,,DOT_ADMIN,2023/12/11 19:40:12+00,DOT_ADMIN,2023/12/11 19:40:12+00
-71.0010880001424,42.2099640002109,663492,MM-0109-S,,Braintree,Braintree - Commuter Rail - Track 1,1,Commuter Rail - Track 1,42.209964,-71.001088,CR-zone-2,,https://www.mbta.com/stops/place-brntn,level_1_cr_platform,0,place-brntn,1,Braintree,,,2,,,,,,,,,DOT_ADMIN,2023/12/11 19:40:12+00,DOT_ADMIN,2023/12/11 19:40:12+00
-71.0422899996491,42.3972219995985,663535,ER-0042,,Chelsea,Chelsea - Commuter Rail,,Commuter Rail,42.397222,-71.04229,CR-zone-1A,,https://www.mbta.com/stops/place-chels,level_0_cr_platform,0,place-chels,1,Chelsea,,,2,,,,,,,,,DOT_ADMIN,2023/12/11 19:40:12+00,DOT_ADMIN,2023/12/11 19:40:12+00
-71.0422899996491,42.3972219995985,663536,ER-0042-01,,Chelsea,Chelsea - Commuter Rail - Track 1 (Outbound),1,Track 1 (Outbound),42.397222,-71.04229,CR-zone-1A,,https://www.mbta.com/stops/place-chels,level_0_cr_platform,0,place-chels,1,Chelsea,,,2,,,,,,,,,DOT_ADMIN,2023/12/11 19:40:12+00,DOT_ADMIN,2023/12/11 19:40:12+00
-71.0424089998159,42.3973360004224,663537,ER-0042-02,,Chelsea,Chelsea - Commuter Rail - Track 2 (Boston),2,Track 2 (Boston),42.397336,-71.042409,CR-zone-1A,,https://www.mbta.com/stops/place-chels,level_0_cr_platform,0,place-chels,1,Chelsea,,,2,,,,,,,,,DOT_ADMIN,2023/12/11 19:40:12+00,DOT_ADMIN,2023/12/11 19:40:12+00
-71.1135510000648,42.3010850001195,663662,NEC-2237,,Forest Hills,Forest Hills - Commuter Rail,,Commuter Rail,42.301085,-71.113551,CR-zone-1A,,https://www.mbta.com/stops/place-forhl,level_-1_cr_platform,0,place-forhl,1,Boston,,,2,,,,,,,,,DOT_ADMIN,2023/12/11 19:40:12+00,DOT_ADMIN,2023/12/11 19:40:12+00
-71.1134909999465,42.3010649998276,663663,NEC-2237-03,,Forest Hills,Forest Hills - Commuter Rail - Track 3,3,Commuter Rail - Track 3,42.301065,-71.113491,CR-zone-1A,,https://www.mbta.com/stops/place-forhl,level_-1_cr_platform,0,place-forhl,1,Boston,,,2,,,,,,,,,DOT_ADMIN,2023/12/11 19:40:12+00,DOT_ADMIN,2023/12/11 19:40:12+00
-71.1136250005261,42.3011049997435,663664,NEC-2237-05,,Forest Hills,Forest Hills - Commuter Rail - Track 5,5,Commuter Rail - Track 5,42.301105,-71.113625,CR-zone-1A,,https://www.mbta.com/stops/place-forhl,level_-1_cr_platform,0,place-forhl,1,Boston,,,2,,,,,,,,,DOT_ADMIN,2023/12/11 19:40:12+00,DOT_ADMIN,2023/12/11 19:40:12+00
-71.0523909998273,42.3206849995818,663729,MM-0023-S,,JFK/UMass,JFK/UMass - Commuter Rail - Track 1 (All Trains),1,Track 1 (All Trains),42.320685,-71.052391,CR-zone-1A,,https://www.mbta.com/stops/place-jfk,level_0.5_cr_platform,0,place-jfk,1,Boston,,,2,,,,,,,,,DOT_ADMIN,2023/12/11 19:40:12+00,DOT_ADMIN,2023/12/11 19:40:12+00
-71.0741099994471,42.4266319997228,663818,WR-0045-S,,Malden Center,Malden Center - Commuter Rail - Track 1 (All Trains),1,Track 1 (All Trains),42.426632,-71.07411,CR-zone-1A,,https://www.mbta.com/stops/place-mlmnl,level_1_cr_platform,0,place-mlmnl,1,Malden,,,2,,,,,,,,,DOT_ADMIN,2023/12/11 19:40:12+00,DOT_ADMIN,2023/12/11 19:40:12+00
-71.062325999608,42.3664169997231,663851,BNT-0000,,North Station,North Station - Commuter Rail,,Commuter Rail,42.366417,-71.062326,CR-zone-1A,,https://www.mbta.com/stops/place-north,level_0_cr_platform,0,place-north,1,Boston,,,2,,,,,,,,,DOT_ADMIN,2023/12/11 19:40:12+00,DOT_ADMIN,2023/12/11 19:40:12+00
-71.0628289993969,42.3664930001016,663852,BNT-0000-01,,North Station,North Station - Commuter Rail - Track 1,1,Commuter Rail - Track 1,42.366493,-71.062829,CR-zone-1A,,https://www.mbta.com/stops/place-north,level_0_cr_platform,0,place-north,1,Boston,,,2,,,,,,,,,DOT_ADMIN,2023/12/11 19:40:12+00,DOT_ADMIN,2023/12/11 19:40:12+00
-71.0628289993969,42.3664930001016,663853,BNT-0000-02,,North Station,North Station - Commuter Rail - Track 2,2,Commuter Rail - Track 2,42.366493,-71.062829,CR-zone-1A,,https://www.mbta.com/stops/place-north,level_0_cr_platform,0,place-north,1,Boston,,,2,,,,,,,,,DOT_ADMIN,2023/12/11 19:40:12+00,DOT_ADMIN,2023/12/11 19:40:12+00
-71.0627299995432,42.3665350003813,663854,BNT-0000-03,,North Station,North Station - Commuter Rail - Track 3,3,Commuter Rail - Track 3,42.366535,-71.06273,CR-zone-1A,,https://www.mbta.com/stops/place-north,level_0_cr_platform,0,place-north,1,Boston,,,2,,,,,,,,,DOT_ADMIN,2023/12/11 19:40:12+00,DOT_ADMIN,2023/12/11 19:40:12+00
-71.0627299995432,42.3665350003813,663855,BNT-0000-04,,North Station,North Station - Commuter Rail - Track 4,4,Commuter Rail - Track 4,42.366535,-71.06273,CR-zone-1A,,https://www.mbta.com/stops/place-north,level_0_cr_platform,0,place-north,1,Boston,,,2,,,,,,,,,DOT_ADMIN,2023/12/11 19:40:12+00,DOT_ADMIN,2023/12/11 19:40:12+00
-71.0626010000802,42.3666179999928,663856,BNT-0000-05,,North Station,North Station - Commuter Rail - Track 5,5,Commuter Rail - Track 5,42.366618,-71.062601,CR-zone-1A,,https://www.mbta.com/stops/place-north,level_0_cr_platform,0,place-north,1,Boston,,,2,,,,,,,,,DOT_ADMIN,2023/12/11 19:40:12+00,DOT_ADMIN,2023/12/11 19:40:12+00
-71.0626010000802,42.3666179999928,663857,BNT-0000-06,,North Station,North Station - Commuter Rail - Track 6,6,Commuter Rail - Track 6,42.366618,-71.062601,CR-zone-1A,,https://www.mbta.com/stops/place-north,level_0_cr_platform,0,place-north,1,Boston,,,2,,,,,,,,,DOT_ADMIN,2023/12/11 19:40:12+00,DOT_ADMIN,2023/12/11 19:40:12+00
-71.062474999883,42.3666869996717,663858,BNT-0000-07,,North Station,North Station - Commuter Rail - Track 7,7,Commuter Rail - Track 7,42.366687,-71.062475,CR-zone-1A,,https://www.mbta.com/stops/place-north,level_0_cr_platform,0,place-north,1,Boston,,,2,,,,,,,,,DOT_ADMIN,2023/12/11 19:40:12+00,DOT_ADMIN,2023/12/11 19:40:12+00
-71.062474999883,42.3666869996717,663859,BNT-0000-08,,North Station,North Station - Commuter Rail - Track 8,8,Commuter Rail - Track 8,42.366687,-71.062475,CR-zone-1A,,https://www.mbta.com/stops/place-north,level_0_cr_platform,0,place-north,1,Boston,,,2,,,,,,,,,DOT_ADMIN,2023/12/11 19:40:12+00,DOT_ADMIN,2023/12/11 19:40:12+00
-71.0623649998459,42.3667609999766,663860,BNT-0000-09,,North Station,North Station - Commuter Rail - Track 9,9,Commuter Rail - Track 9,42.366761,-71.062365,CR-zone-1A,,https://www.mbta.com/stops/place-north,level_0_cr_platform,0,place-north,1,Boston,,,2,,,,,,,,,DOT_ADMIN,2023/12/11 19:40:12+00,DOT_ADMIN,2023/12/11 19:40:12+00
-71.0623649998459,42.3667609999766,663861,BNT-0000-10,,North Station,North Station - Commuter Rail - Track 10,10,Commuter Rail - Track 10,42.366761,-71.062365,CR-zone-1A,,https://www.mbta.com/stops/place-north,level_0_cr_platform,0,place-north,1,Boston,,,2,,,,,,,,,DOT_ADMIN,2023/12/11 19:40:12+00,DOT_ADMIN,2023/12/11 19:40:12+00
-71.0707050001827,42.4377310001222,663888,WR-0053-S,,Oak Grove,Oak Grove - Commuter Rail - Track 1 (All Trains),1,Commuter Rail - Track 1 (All Trains),42.437731,-71.070705,CR-zone-1A,,https://www.mbta.com/stops/place-ogmnl,level_0_cr_platform,0,place-ogmnl,1,Malden,,,2,,,,,,,,,DOT_ADMIN,2023/12/11 19:40:12+00,DOT_ADMIN,2023/12/11 19:40:12+00
-71.1191479997903,42.3884010000166,663921,FR-0034,,Porter,Porter - Commuter Rail,,Commuter Rail,42.388401,-71.119148,CR-zone-1A,,https://www.mbta.com/stops/place-portr,level_-1_cr_platform,0,place-portr,1,Cambridge,,,2,,,,,,,,,DOT_ADMIN,2023/12/11 19:40:12+00,DOT_ADMIN,2023/12/11 19:40:12+00
-71.1191490004468,42.388400000415,663922,FR-0034-01,,Porter,Porter - Commuter Rail - Track 1 (Outbound),1,Commuter Rail - Track 1 (Outbound),42.3884,-71.119149,CR-zone-1A,,https://www.mbta.com/stops/place-portr,level_-1_cr_platform,0,place-portr,1,Cambridge,,,2,,,,,,,,,DOT_ADMIN,2023/12/11 19:40:12+00,DOT_ADMIN,2023/12/11 19:40:12+00
-71.1191490004468,42.388400000415,663923,FR-0034-02,,Porter,Porter - Commuter Rail - Track 2 (Boston),2,Commuter Rail - Track 2 (Boston),42.3884,-71.119149,CR-zone-1A,,https://www.mbta.com/stops/place-portr,level_-1_cr_platform,0,place-portr,1,Cambridge,,,2,,,,,,,,,DOT_ADMIN,2023/12/11 19:40:12+00,DOT_ADMIN,2023/12/11 19:40:12+00
-71.0054089995668,42.2518089999723,663949,MM-0079-S,,Quincy Center,Quincy Center - Commuter Rail - Track 1 (All Trains),1,Track 1 (All Trains),42.251809,-71.005409,CR-zone-1,,https://www.mbta.com/stops/place-qnctr,level_-1_cr_platform,0,place-qnctr,1,Quincy,,,2,,,,,,,,,DOT_ADMIN,2023/12/11 19:40:12+00,DOT_ADMIN,2023/12/11 19:40:12+00
-71.08920799978,42.3366080000167,663985,NEC-2265,,Ruggles,Ruggles - Commuter Rail,,Commuter Rail,42.336608,-71.089208,CR-zone-1A,,https://www.mbta.com/stops/place-rugg,level_1_ground,0,place-rugg,1,Boston,,,2,,,,,,,,,DOT_ADMIN,2023/12/11 19:40:12+00,DOT_ADMIN,2023/12/11 19:40:12+00
-71.0895169998098,42.3363390003501,663986,NEC-2265-01,,Ruggles,Ruggles - Commuter Rail - Track 1,1,Commuter Rail - Track 1,42.336339,-71.089517,CR-zone-1A,,https://www.mbta.com/stops/place-rugg,level_0_cr_platform,0,place-rugg,1,Boston,,,2,,,,,,,,,DOT_ADMIN,2023/12/11 19:40:12+00,DOT_ADMIN,2023/12/11 19:40:12+00
-71.0877370001676,42.3376590002037,663987,NEC-2265-02,,Ruggles,Ruggles - Commuter Rail - Track 2,2,Commuter Rail - Track 2,42.337659,-71.087737,CR-zone-1A,,https://www.mbta.com/stops/place-rugg,level_0_cr_platform,0,place-rugg,1,Boston,,,2,,,,,,,,,DOT_ADMIN,2023/12/11 19:40:12+00,DOT_ADMIN,2023/12/11 19:40:12+00
-71.0895540004488,42.3363680003665,663988,NEC-2265-03,,Ruggles,Ruggles - Commuter Rail - Track 3,3,Commuter Rail - Track 3,42.336368,-71.089554,CR-zone-1A,,https://www.mbta.com/stops/place-rugg,level_0_cr_platform,0,place-rugg,1,Boston,,,2,,,,,,,,,DOT_ADMIN,2023/12/11 19:40:12+00,DOT_ADMIN,2023/12/11 19:40:12+00
-71.0554170006022,42.3514099997774,664034,NEC-2287,,South Station,South Station - Commuter Rail,,Commuter Rail,42.35141,-71.055417,CR-zone-1A,,https://www.mbta.com/stops/place-sstat,level_0_cr_platform,0,place-sstat,1,Boston,,,2,,,,,,,,,DOT_ADMIN,2023/12/11 19:40:12+00,DOT_ADMIN,2023/12/11 19:40:12+00
-71.055709999829,42.3513019996485,664035,NEC-2287-01,,South Station,South Station - Commuter Rail - Track 1,1,Commuter Rail - Track 1,42.351302,-71.05571,CR-zone-1A,,https://www.mbta.com/stops/place-sstat,level_0_cr_platform,0,place-sstat,1,Boston,,,2,,,,,,,,,DOT_ADMIN,2023/12/11 19:40:12+00,DOT_ADMIN,2023/12/11 19:40:12+00
-71.0555519999092,42.3512610001697,664036,NEC-2287-02,,South Station,South Station - Commuter Rail - Track 2,2,Commuter Rail - Track 2,42.351261,-71.055552,CR-zone-1A,,https://www.mbta.com/stops/place-sstat,level_0_cr_platform,0,place-sstat,1,Boston,,,2,,,,,,,,,DOT_ADMIN,2023/12/11 19:40:12+00,DOT_ADMIN,2023/12/11 19:40:12+00
-71.0555519999092,42.3512610001697,664037,NEC-2287-03,,South Station,South Station - Commuter Rail - Track 3,3,Commuter Rail - Track 3,42.351261,-71.055552,CR-zone-1A,,https://www.mbta.com/stops/place-sstat,level_0_cr_platform,0,place-sstat,1,Boston,,,2,,,,,,,,,DOT_ADMIN,2023/12/11 19:40:12+00,DOT_ADMIN,2023/12/11 19:40:12+00
-71.0553960004436,42.3512200001046,664038,NEC-2287-04,,South Station,South Station - Commuter Rail - Track 4,4,Commuter Rail - Track 4,42.35122,-71.055396,CR-zone-1A,,https://www.mbta.com/stops/place-sstat,level_0_cr_platform,0,place-sstat,1,Boston,,,2,,,,,,,,,DOT_ADMIN,2023/12/11 19:40:12+00,DOT_ADMIN,2023/12/11 19:40:12+00
-71.0553960004436,42.3512200001046,664039,NEC-2287-05,,South Station,South Station - Commuter Rail - Track 5,5,Commuter Rail - Track 5,42.35122,-71.055396,CR-zone-1A,,https://www.mbta.com/stops/place-sstat,level_0_cr_platform,0,place-sstat,1,Boston,,,2,,,,,,,,,DOT_ADMIN,2023/12/11 19:40:12+00,DOT_ADMIN,2023/12/11 19:40:12+00
-71.0552379994673,42.3511779999631,664040,NEC-2287-06,,South Station,South Station - Commuter Rail - Track 6,6,Commuter Rail - Track 6,42.351178,-71.055238,CR-zone-1A,,https://www.mbta.com/stops/place-sstat,level_0_cr_platform,0,place-sstat,1,Boston,,,2,,,,,,,,,DOT_ADMIN,2023/12/11 19:40:12+00,DOT_ADMIN,2023/12/11 19:40:12+00
-71.0552379994673,42.3511779999631,664041,NEC-2287-07,,South Station,South Station - Commuter Rail - Track 7,7,Commuter Rail - Track 7,42.351178,-71.055238,CR-zone-1A,,https://www.mbta.com/stops/place-sstat,level_0_cr_platform,0,place-sstat,1,Boston,,,2,,,,,,,,,DOT_ADMIN,2023/12/11 19:40:12+00,DOT_ADMIN,2023/12/11 19:40:12+00
-71.0550810000347,42.3511359998772,664042,NEC-2287-08,,South Station,South Station - Commuter Rail - Track 8,8,Commuter Rail - Track 8,42.351136,-71.055081,CR-zone-1A,,https://www.mbta.com/stops/place-sstat,level_0_cr_platform,0,place-sstat,1,Boston,,,2,,,,,,,,,DOT_ADMIN,2023/12/11 19:40:12+00,DOT_ADMIN,2023/12/11 19:40:12+00
-71.0550810000347,42.3511359998772,664043,NEC-2287-09,,South Station,South Station - Commuter Rail - Track 9,9,Commuter Rail - Track 9,42.351136,-71.055081,CR-zone-1A,,https://www.mbta.com/stops/place-sstat,level_0_cr_platform,0,place-sstat,1,Boston,,,2,,,,,,,,,DOT_ADMIN,2023/12/11 19:40:12+00,DOT_ADMIN,2023/12/11 19:40:12+00
-71.0549579997537,42.3510339997296,664044,NEC-2287-10,,South Station,South Station - Commuter Rail - Track 10,10,Commuter Rail - Track 10,42.351034,-71.054958,CR-zone-1A,,https://www.mbta.com/stops/place-sstat,level_0_cr_platform,0,place-sstat,1,Boston,,,2,,,,,,,,,DOT_ADMIN,2023/12/11 19:40:12+00,DOT_ADMIN,2023/12/11 19:40:12+00
-71.0549579997537,42.3510339997296,664045,NEC-2287-11,,South Station,South Station - Commuter Rail - Track 11,11,Commuter Rail - Track 11,42.351034,-71.054958,CR-zone-1A,,https://www.mbta.com/stops/place-sstat,level_0_cr_platform,0,place-sstat,1,Boston,,,2,,,,,,,,,DOT_ADMIN,2023/12/11 19:40:12+00,DOT_ADMIN,2023/12/11 19:40:12+00
-71.0549300004874,42.3507420003292,664046,NEC-2287-12,,South Station,South Station - Commuter Rail - Track 12,12,Commuter Rail - Track 12,42.350742,-71.05493,CR-zone-1A,,https://www.mbta.com/stops/place-sstat,level_0_cr_platform,0,place-sstat,1,Boston,,,2,,,,,,,,,DOT_ADMIN,2023/12/11 19:40:12+00,DOT_ADMIN,2023/12/11 19:40:12+00
-71.0549300004874,42.3507420003292,664047,NEC-2287-13,,South Station,South Station - Commuter Rail - Track 13,13,Commuter Rail - Track 13,42.350742,-71.05493,CR-zone-1A,,https://www.mbta.com/stops/place-sstat,level_0_cr_platform,0,place-sstat,1,Boston,,,2,,,,,,,,,DOT_ADMIN,2023/12/11 19:40:12+00,DOT_ADMIN,2023/12/11 19:40:12+00
